SALE TYPE,SOLD DATE,PROPERTY TYPE,ADDRESS,CITY,STATE OR PROVINCE,ZIP OR POSTAL CODE,PRICE,BEDS,BATHS,LOCATION,SQUARE FEET,LOT SIZE,YEAR BUILT,DAYS ON MARKET,$/SQUARE FEET,HOA/MONTH,STATUS,NEXT OPEN HOUSE START TIME,NEXT OPEN HOUSE END TIME,URL (SEE https://www.redfin.com/buy-a-home/comparative-market-analysis FOR INFO ON PRICING),SOURCE,MLS#,FAVORITE,INTERESTED,LATITUDE,LONGITUDE
PAST SALE,February-16-2023,Single Family Residential,801 Shawnee St,Schenley Heights,PA,15219,90000,3,1.5,Schenley Heights,1783,2400,1935,,50,,Sold,,,https://www.redfin.com/PA/Pittsburgh/801-Shawnee-St-15219/home/74567226,West Penn MLS,1589837,N,Y,40.451076,-79.9610284
PAST SALE,February-15-2023,Condo/Co-op,2635 Penn Ave #305,Downtown Pgh,PA,15222,611000,2,2.0,Downtown Pgh,1456,,2022,,420,,Sold,,,https://www.redfin.com/PA/Pittsburgh/2635-Penn-Ave-15222/unit-305/home/170009490,West Penn MLS,1580792,N,Y,40.4557694,-79.9777068
PAST SALE,February-14-2023,Condo/Co-op,2635 Penn Ave #302,Downtown Pgh,PA,15222,556000,2,2.0,Downtown Pgh,1401,,2022,,397,,Sold,,,https://www.redfin.com/PA/Pittsburgh/2635-Penn-Ave-15222/unit-302/home/170009422,West Penn MLS,1580784,N,Y,40.4557694,-79.9777068
PAST SALE,February-10-2023,Condo/Co-op,2635 Penn Ave #406,Downtown Pgh,PA,15222,403000,1,1.0,Downtown Pgh,941,,2022,,428,,Sold,,,https://www.redfin.com/PA/Pittsburgh/2635-Penn-Ave-15222/unit-406/home/171236206,West Penn MLS,1581141,N,Y,40.4557694,-79.9777068
PAST SALE,February-10-2023,Condo/Co-op,2635 Penn Ave #216,Downtown Pgh,PA,15222,409000,1,1.0,Downtown Pgh,927,,2023,,441,,Sold,,,https://www.redfin.com/PA/Pittsburgh/2635-Penn-Ave-15222/unit-216/home/181243214,West Penn MLS,1592803,N,Y,40.455771,-79.9777087
PAST SALE,February-10-2023,Condo/Co-op,220 N Bellefield Ave #1201,Oakland,PA,15213,935000,3,2.5,Oakland,2489,,1997,,376,1510,Sold,,,https://www.redfin.com/PA/Pittsburgh/220-N-Bellefield-Ave-15213/unit-1201/home/73535655,West Penn MLS,1580216,N,Y,40.4490999,-79.9527577
PAST SALE,February-10-2023,Single Family Residential,206 1/2 Orville Way,Bloomfield,PA,15224,185000,2,1.0,Bloomfield,960,810,1900,,193,,Sold,,,https://www.redfin.com/PA/Pittsburgh/206-1-2-Orville-Way-15224/home/74653702,West Penn MLS,1585535,N,Y,40.4637995,-79.9503532
PAST SALE,February-10-2023,Condo/Co-op,5025 5th Ave Unit 1B,Shadyside,PA,15232,380000,3,2.0,Shadyside,1680,,1960,,226,1005,Sold,,,https://www.redfin.com/PA/Pittsburgh/5025-5th-Ave-15232/unit-1B/home/74665264,West Penn MLS,1546984,N,Y,40.4479274,-79.9416112
PAST SALE,February-9-2023,Condo/Co-op,2635 Penn Ave #405,Downtown Pgh,PA,15222,624000,2,2.0,Downtown Pgh,1456,,2022,,429,422,Sold,,,https://www.redfin.com/PA/Pittsburgh/2635-Penn-Ave-15222/unit-405/home/171236393,West Penn MLS,1581140,N,Y,40.4557694,-79.9777068
PAST SALE,February-9-2023,Single Family Residential,730 Adelaide St,Schenley Heights,PA,15219,93750,3,1.0,Schenley Heights,1044,3105,1915,,90,,Sold,,,https://www.redfin.com/PA/Pittsburgh/730-Adelaide-St-15219/home/74563959,West Penn MLS,1577380,N,Y,40.4538875,-79.9600896
PAST SALE,February-3-2023,Townhouse,6 Ellsworth Ter,Shadyside,PA,15213,437150,3,2.0,Shadyside,1608,1981,1910,,272,,Sold,,,https://www.redfin.com/PA/Pittsburgh/6-Ellsworth-Ter-15213/home/74665279,West Penn MLS,1587895,N,Y,40.4496545,-79.94669
PAST SALE,February-1-2023,Single Family Residential,223 Edmond St,Bloomfield,PA,15224,155000,2,1.0,Bloomfield,1088,2008,1910,,142,,Sold,,,https://www.redfin.com/PA/Pittsburgh/223-Edmond-St-15224/home/74657987,West Penn MLS,1553442,N,Y,40.4644925,-79.9474211
PAST SALE,January-31-2023,Single Family Residential,4142 Bigelow,Schenley Farms,PA,15213,1150000,4,4.5,Schenley Farms,4750,,1927,,242,,Sold,,,https://www.redfin.com/PA/Pittsburgh/4142-Schenley-Farms-Ter-15213/home/183761804,West Penn MLS,1569418,N,Y,40.4509632,-79.9551468
PAST SALE,January-31-2023,Condo/Co-op,2635 Penn Ave #208,Downtown Pgh,PA,15222,613000,2,2.0,Downtown Pgh,1542,,2022,,398,,Sold,,,https://www.redfin.com/PA/Pittsburgh/2635-Penn-Ave-15222/unit-208/home/170109699,West Penn MLS,1572263,N,Y,40.4557694,-79.9777068
PAST SALE,January-27-2023,Townhouse,359A S Evaline St,Friendship Park,PA,15224,305000,3,1.5,Friendship Park,,1947,1918,,,,Sold,,,https://www.redfin.com/PA/Pittsburgh/359A-S-Evaline-St-15224/home/182491957,West Penn MLS,1581901,N,Y,40.4604978,-79.9414993
PAST SALE,January-27-2023,Condo/Co-op,2635 Penn Ave #306,Downtown Pgh,PA,15222,411000,2,1.0,Downtown Pgh,941,,2023,,437,,Sold,,,https://www.redfin.com/PA/Pittsburgh/2635-Penn-Ave-15222/unit-306/home/171236228,West Penn MLS,1591336,N,Y,40.4557694,-79.9777068
PAST SALE,January-27-2023,Condo/Co-op,2635 Penn Ave #316,Downtown Pgh,PA,15222,394000,1,1.0,Downtown Pgh,927,,2022,,425,,Sold,,,https://www.redfin.com/PA/Pittsburgh/2635-Penn-Ave-15222/unit-316/home/182365258,West Penn MLS,1580809,N,Y,40.455771,-79.9777087
PAST SALE,January-27-2023,Condo/Co-op,220 N Dithridge St #1006,Oakland,PA,15213,300000,2,2.0,Oakland,1577,,1972,,190,844,Sold,,,https://www.redfin.com/PA/Pittsburgh/220-N-Dithridge-St-15213/unit-1006/home/74567736,West Penn MLS,1581736,N,Y,40.4498393,-79.9517524
PAST SALE,January-26-2023,Condo/Co-op,2635 Penn Ave #408,Downtown Pgh,PA,15222,554000,2,2.0,Downtown Pgh,1359,,2023,,408,,Sold,,,https://www.redfin.com/PA/Pittsburgh/2635-Penn-Ave-15222/unit-408/home/171236225,West Penn MLS,1591238,N,Y,40.4557694,-79.9777068
PAST SALE,January-23-2023,Condo/Co-op,2635 Penn Ave #317,Downtown Pgh,PA,15222,551000,2,2.0,Downtown Pgh,1364,,2022,,404,,Sold,,,https://www.redfin.com/PA/Pittsburgh/2635-Penn-Ave-15222/unit-317/home/182365474,West Penn MLS,1580815,N,Y,40.455771,-79.9777087
PAST SALE,January-23-2023,Condo/Co-op,5 Bayard Rd #609,Shadyside,PA,15213,187000,2,2.0,Shadyside,1200,,1969,,156,664,Sold,,,https://www.redfin.com/PA/Pittsburgh/5-Bayard-Rd-15213/unit-609/home/73554368,West Penn MLS,1580911,N,Y,40.4526167,-79.9428455
PAST SALE,January-20-2023,Single Family Residential,4732 Wallingford St,Shadyside,PA,15213,974000,5,4.5,Shadyside,3015,9082,1900,,323,,Sold,,,https://www.redfin.com/PA/Pittsburgh/4732-Wallingford-St-15213/home/74664454,West Penn MLS,1585536,N,Y,40.4516724,-79.9477567
PAST SALE,January-20-2023,Single Family Residential,3343 Webster,Hill District,PA,15219,77500,3,1.0,Hill District,1444,,1930,,54,,Sold,,,https://www.redfin.com/PA/Pittsburgh/3343-Webster-15219/home/180291604,West Penn MLS,1562811,N,Y,40.4452799,-79.97972
PAST SALE,January-20-2023,Single Family Residential,3328 Mcneil Pl,Hill District,PA,15219,40044,3,1.0,Hill District,1444,1528,1930,,28,,Sold,,,https://www.redfin.com/PA/Pittsburgh/3328-McNeil-Pl-15219/home/74564098,West Penn MLS,1577039,N,Y,40.4539811,-79.964421
PAST SALE,January-20-2023,Ranch,409 N Craig St,Oakland,PA,15213,125000,0,,Oakland,,10968,,,,,Sold,,,https://www.redfin.com/PA/Pittsburgh/409-N-Craig-St-15213/home/147557223,West Penn MLS,1535863,N,Y,40.4541899,-79.953965
PAST SALE,January-20-2023,Condo/Co-op,4601 Fifth Ave #225,Oakland,PA,15213,108000,2,1.0,Oakland,827,,1958,,131,795,Sold,,,https://www.redfin.com/PA/Pittsburgh/4601-Fifth-Ave-15213/unit-225/home/102214573,West Penn MLS,1537744,N,Y,40.447339,-79.948719
PAST SALE,January-17-2023,Single Family Residential,326 Ella St,Bloomfield,PA,15224,180000,3,2.0,Bloomfield,1156,1542,1900,,156,,Sold,,,https://www.redfin.com/PA/Pittsburgh/326-Ella-St-15224/home/74653869,West Penn MLS,1585806,N,Y,40.4624871,-79.9525719
PAST SALE,January-17-2023,Single Family Residential,4745 Friendship Ave,Bloomfield,PA,15224,400000,5,3.0,Bloomfield,2682,3911,1895,,149,,Sold,,,https://www.redfin.com/PA/Pittsburgh/4745-Friendship-Ave-15224/home/73553763,West Penn MLS,1580912,N,Y,40.4630496,-79.9471846
PAST SALE,January-13-2023,Condo/Co-op,2434 Smallman St Unit 416 #416,Downtown Pgh,PA,15222,360000,2,1.0,Downtown Pgh,1072,,2011,,336,257,Sold,,,https://www.redfin.com/PA/Pittsburgh/2434-Smallman-St-15222/unit-416/home/73515317,West Penn MLS,1577560,N,Y,40.4542652,-79.9807707
PAST SALE,January-12-2023,Single Family Residential,4774 Cypress St,Bloomfield,PA,15224,250000,3,2.0,Bloomfield,2100,1999,1895,,119,,Sold,,,https://www.redfin.com/PA/Pittsburgh/4774-Cypress-St-15224/home/74661658,West Penn MLS,1575254,N,Y,40.4595111,-79.9487029
PAST SALE,January-9-2023,Condo/Co-op,2635 Penn Ave #206,Downtown Pgh,PA,15222,420000,2,1.0,Downtown Pgh,1094,,2022,,384,,Sold,,,https://www.redfin.com/PA/Pittsburgh/2635-Penn-Ave-15222/unit-206/home/170009357,West Penn MLS,1589542,N,Y,40.4557694,-79.9777068
PAST SALE,January-9-2023,Single Family Residential,4841 Ellsworth Ave,Shadyside,PA,15213,1531122,4,4.0,Shadyside,5781,39204,1860,,265,,Sold,,,https://www.redfin.com/PA/Pittsburgh/4841-Ellsworth-Ave-15213/home/73506285,West Penn MLS,1579832,N,Y,40.4498632,-79.9463978
PAST SALE,January-9-2023,Condo/Co-op,825 Morewood Ave Ph 1,Shadyside,PA,15213,244900,1,1.0,Shadyside,1337,,1960,,183,780,Sold,,,https://www.redfin.com/PA/Pittsburgh/825-Morewood-Ave-15213/unit-1/home/173118735,West Penn MLS,1574399,N,Y,40.447995,-79.941973
PAST SALE,January-6-2023,Condo/Co-op,2635 Penn Ave #308,Downtown Pgh,PA,15222,534000,2,2.0,Downtown Pgh,1359,,2022,,393,,Sold,,,https://www.redfin.com/PA/Pittsburgh/2635-Penn-Ave-15222/unit-308/home/170113959,West Penn MLS,1589236,N,Y,40.4557694,-79.9777068
PAST SALE,January-6-2023,Condo/Co-op,2635 Penn Ave #218,Downtown Pgh,PA,15222,562000,2,2.0,Downtown Pgh,1444,,2022,,389,,Sold,,,https://www.redfin.com/PA/Pittsburgh/2635-Penn-Ave-15222/unit-218/home/181243253,West Penn MLS,1589234,N,Y,40.455771,-79.9777087
PAST SALE,January-6-2023,Single Family Residential,5025 Castleman,Shadyside,PA,15232,975000,5,3.5,Shadyside,3415,4721,1900,,286,,Sold,,,https://www.redfin.com/PA/Pittsburgh/5025-Castleman-St-15232/home/74665222,West Penn MLS,1574808,N,Y,40.449285,-79.941514
PAST SALE,January-5-2023,Single Family Residential,247 Edmond St,Bloomfield,PA,15224,220000,3,2.0,Bloomfield,1970,2008,1894,,112,,Sold,,,https://www.redfin.com/PA/Pittsburgh/247-Edmond-St-15224/home/74658018,West Penn MLS,1580362,N,Y,40.4638194,-79.9474597
PAST SALE,January-5-2023,Condo/Co-op,2635 Penn Ave #318,Downtown Pgh,PA,15222,500000,2,2.0,Downtown Pgh,1244,,2022,,402,,Sold,,,https://www.redfin.com/PA/Pittsburgh/2635-Penn-Ave-15222/unit-318/home/182365514,West Penn MLS,1580817,N,Y,40.455771,-79.9777087
PAST SALE,January-5-2023,Condo/Co-op,2635 Penn Ave #212,Downtown Pgh,PA,15222,732000,2,2.0,Downtown Pgh,927,,2022,,790,,Sold,,,https://www.redfin.com/PA/Pittsburgh/2635-Penn-Ave-15222/unit-212/home/170109884,West Penn MLS,1589087,N,Y,40.4557694,-79.9777068
PAST SALE,December-30-2022,Condo/Co-op,2635 Penn Ave #416,Downtown Pgh,PA,15222,752000,2,2.0,Downtown Pgh,1524,,2022,,493,,Sold,,,https://www.redfin.com/PA/Pittsburgh/2635-Penn-Ave-15222/unit-416/home/182365667,West Penn MLS,1588693,N,Y,40.455771,-79.9777087
PAST SALE,December-29-2022,Condo/Co-op,540 N Neville St #805,Oakland,PA,15213,320000,2,2.0,Oakland,1680,,1973,,190,874,Sold,,,https://www.redfin.com/PA/Pittsburgh/540-N-Neville-St-15213/unit-805/home/73553931,West Penn MLS,1584992,N,Y,40.4490295,-79.9486984
PAST SALE,December-29-2022,Condo/Co-op,2635 Penn Ave #217,Downtown Pgh,PA,15222,636000,2,2.0,Downtown Pgh,1592,,2022,,399,,Sold,,,https://www.redfin.com/PA/Pittsburgh/2635-Penn-Ave-15222/unit-217/home/181243233,West Penn MLS,1588612,N,Y,40.455771,-79.9777087
PAST SALE,December-28-2022,Condo/Co-op,128 N Craig St #308,Oakland,PA,15213,160000,1,1.0,Oakland,1090,,1957,,147,625,Sold,,,https://www.redfin.com/PA/Pittsburgh/128-N-Craig-St-15213/unit-308/home/74664774,West Penn MLS,1583907,N,Y,40.4480778,-79.9483198
PAST SALE,December-28-2022,Condo/Co-op,2635 Penn Ave #314,Downtown Pgh,PA,15222,438402,2,1.0,Downtown Pgh,937,,2022,,468,272,Sold,,,https://www.redfin.com/PA/Pittsburgh/2635-Penn-Ave-15222/unit-314/home/171236222,West Penn MLS,1588530,N,Y,40.4557694,-79.9777068
PAST SALE,December-27-2022,Single Family Residential,638 Chauncey St,Hill District,PA,15219,30000,3,1.0,Hill District,1272,1912,1915,,24,,Sold,,,https://www.redfin.com/PA/Pittsburgh/638-Chauncey-St-15219/home/73589187,West Penn MLS,1582963,N,Y,40.4484814,-79.9737464
PAST SALE,December-22-2022,Condo/Co-op,144 N Dithridge Unit P4,Oakland,PA,15213,300000,3,2.5,Oakland,2880,,1940,,104,1679,Sold,,,https://www.redfin.com/PA/Pittsburgh/144-N-Dithridge-St-15213/unit-P4/home/181482691,West Penn MLS,1574960,N,Y,40.4482339,-79.950786
PAST SALE,December-22-2022,Condo/Co-op,4625 Fifth Ave #400,Oakland,PA,15213,165000,3,2.0,Oakland,1200,,1956,,138,882,Sold,,,https://www.redfin.com/PA/Pittsburgh/4625-Fifth-Ave-15213/unit-400/home/147524234,West Penn MLS,1576946,N,Y,40.4473994,-79.9482013
PAST SALE,December-22-2022,Townhouse,1718 Cliff,Hill District,PA,15219,135000,3,1.5,Hill District,,,1983,,,,Sold,,,https://www.redfin.com/PA/Pittsburgh/1718-Cliff-15219/home/179428208,West Penn MLS,1554726,N,Y,40.4452799,-79.97972
PAST SALE,December-21-2022,Condo/Co-op,2635 Penn Ave #312,Downtown Pgh,PA,15222,391000,1,1.0,Downtown Pgh,875,,2022,,447,,Sold,,,https://www.redfin.com/PA/Pittsburgh/2635-Penn-Ave-15222/unit-312/home/171236374,West Penn MLS,1580801,N,Y,40.4557694,-79.9777068
PAST SALE,December-16-2022,Condo/Co-op,5100 5th Ave #407,Shadyside,PA,15232,220000,2,2.0,Shadyside,1284,,1960,,171,753,Sold,,,https://www.redfin.com/PA/Pittsburgh/5100-5th-Ave-15232/unit-407/home/74665869,West Penn MLS,1567062,N,Y,40.4474226,-79.9389966
PAST SALE,December-16-2022,Single Family Residential,3601 Mintwood St,Lawrenceville,PA,15201,390000,3,2.5,Lawrenceville,2300,1920,1890,,170,,Sold,,,https://www.redfin.com/PA/Pittsburgh/3601-Mintwood-St-15201/home/74652910,West Penn MLS,1569420,N,Y,40.4634544,-79.963787
PAST SALE,December-15-2022,Condo/Co-op,5 Bayard Rd #805,Shadyside,PA,15213,155000,1,1.0,Shadyside,856,,1969,,181,465,Sold,,,https://www.redfin.com/PA/Pittsburgh/5-Bayard-Rd-15213/unit-805/home/74665143,West Penn MLS,1576746,N,Y,40.4526167,-79.9428455
PAST SALE,December-15-2022,Multi-Family (2-4 Unit),318 Hancock St,Polish Hill,PA,15219,354200,7,3.0,Polish Hill,,1306,1900,,,,Sold,,,https://www.redfin.com/PA/Pittsburgh/318-Hancock-St-15219/home/74561570,West Penn MLS,1581558,N,Y,40.4584909,-79.966469
PAST SALE,December-13-2022,Condo/Co-op,5100 5th Ave #506,Shadyside,PA,15232,185000,1,1.0,Shadyside,988,,1960,,187,600,Sold,,,https://www.redfin.com/PA/Pittsburgh/5100-5th-Ave-15232/unit-506/home/74665861,West Penn MLS,1574664,N,Y,40.4474363,-79.9390058
PAST SALE,December-12-2022,Single Family Residential,2147-2153 Wylie Ave,Hill District,PA,15219,70000,0,,Hill District,,10698,,,,,Sold,,,https://www.redfin.com/PA/Pittsburgh/2147-Wylie-Ave-15219/home/170653708,West Penn MLS,1539531,N,Y,40.4456823,-79.9777711
PAST SALE,December-9-2022,Single Family Residential,4094 Howley St,Bloomfield,PA,15224,265000,2,1.0,Bloomfield,912,1184,1900,,291,,Sold,,,https://www.redfin.com/PA/Pittsburgh/4094-Howley-St-15224/home/74653285,West Penn MLS,1556287,N,Y,40.4640947,-79.9538395
PAST SALE,December-9-2022,Single Family Residential,3215 Brereton St,Polish Hill,PA,15219,165000,4,3.0,Polish Hill,2760,988,1900,,60,,Sold,,,https://www.redfin.com/PA/Pittsburgh/3215-Brereton-St-15219/home/74564265,West Penn MLS,1576744,N,Y,40.4568884,-79.9656885
PAST SALE,December-9-2022,Condo/Co-op,307 S Dithridge St #504,Oakland,PA,15213,290000,2,2.0,Oakland,1610,,1979,,180,863,Sold,,,https://www.redfin.com/PA/Pittsburgh/307-S-Dithridge-St-15213/unit-504/home/74567803,West Penn MLS,1579555,N,Y,40.4453513,-79.9499554
PAST SALE,December-5-2022,Single Family Residential,2913 Bedford Ave,Hill District,PA,15219,83000,2,1.0,Hill District,1080,1476,1900,,77,,Sold,,,https://www.redfin.com/PA/Pittsburgh/2913-Bedford-Ave-15219/home/74562268,West Penn MLS,1577525,N,Y,40.4529771,-79.9674932
PAST SALE,December-5-2022,Single Family Residential,3428 Bethoven,Polish Hill,PA,15219,200000,3,1.0,Polish Hill,,2395,,,,,Sold,,,https://www.redfin.com/PA/Pittsburgh/3428-Bethoven-St-15219/home/74563712,West Penn MLS,1576825,N,Y,40.4578476,-79.9616095
PAST SALE,December-5-2022,Single Family Residential,2637 Webster Ave,Hill District,PA,15219,248500,3,3.0,Hill District,,5571,1980,,,,Sold,,,https://www.redfin.com/PA/Pittsburgh/2637-Webster-Ave-15219/home/74456888,West Penn MLS,1553294,N,Y,40.4508705,-79.9700866
PAST SALE,December-2-2022,Condo/Co-op,4601 Fifth Avenue   #221,Oakland,PA,15213,127000,2,1.0,Oakland,,,1958,,,883,Sold,,,https://www.redfin.com/PA/Pittsburgh/4601-Fifth-Ave-15213/unit-221/home/75155568,West Penn MLS,1578156,N,Y,40.447339,-79.948719
PAST SALE,,Single Family Residential,638 Watt St,Pittsburgh,PA,15219,192500,3,1.5,,1052,4800,1985,,183,,,,,https://www.redfin.com/PA/Pittsburgh/638-Watt-St-15219/home/74457249,,,N,Y,40.44982,-79.9706449
PAST SALE,,Multi-Family (2-4 Unit),532 Francis St,Pittsburgh,PA,15219,35000,4,2.0,,2940,3910,1930,,12,,,,,https://www.redfin.com/PA/Pittsburgh/532-Francis-St-15219/home/74457216,,,N,Y,40.4481878,-79.9678193
PAST SALE,,Parking,2635-2643 Penn Ave #214,Pittsburgh,PA,15222,415000,,,,,27692,,,,,,,,https://www.redfin.com/PA/Pittsburgh/2635-2643-Penn-Ave-15222/unit-214/home/163415891,,,N,Y,40.455792,-79.977673
PAST SALE,November-22-2022,Single Family Residential,1324 Goettman St,Troy Hill,PA,15212,422600,3,2.5,Troy Hill,1808,2199,1900,,234,,Sold,,,https://www.redfin.com/PA/Pittsburgh/1324-Goettman-St-15212/home/74557344,West Penn MLS,1579632,N,Y,40.4589079,-79.9873013
PAST SALE,November-21-2022,Single Family Residential,4054 Cabinet St,Bloomfield,PA,15224,104460,2,1.0,Bloomfield,1536,879,1911,,68,,Sold,,,https://www.redfin.com/PA/Pittsburgh/4054-Cabinet-St-15224/home/74653310,West Penn MLS,1566396,N,Y,40.4642383,-79.9553085
PAST SALE,November-21-2022,Multi-Family (2-4 Unit),3900 Howley St,Lawrenceville,PA,15224,355000,5,3.0,Lawrenceville,,2639,1900,,,,Sold,,,https://www.redfin.com/PA/Pittsburgh/3900-Howley-St-15224/home/74653102,West Penn MLS,1578223,N,Y,40.463093,-79.9594071
PAST SALE,November-18-2022,Single Family Residential,326 Cedarville St,Bloomfield,PA,15224,175000,3,2.5,Bloomfield,1184,,1885,,148,,Sold,,,https://www.redfin.com/PA/Pittsburgh/326-Cedarville-St-15224/home/73548847,West Penn MLS,1555958,N,Y,40.4609777,-79.9496225
PAST SALE,November-18-2022,Condo/Co-op,128 N Craig St #506,Oakland,PA,15213,185000,1,1.0,Oakland,1013,,1957,,183,581,Sold,,,https://www.redfin.com/PA/Pittsburgh/128-N-Craig-St-15213/unit-506/home/74664794,West Penn MLS,1575944,N,Y,40.4480778,-79.9483198
PAST SALE,November-18-2022,Condo/Co-op,4041 Liberty Ave #302,Bloomfield,PA,15224,385000,2,2.0,Bloomfield,1140,,1920,,338,300,Sold,,,https://www.redfin.com/PA/Pittsburgh/4041-Liberty-Ave-15224/unit-302/home/144670293,West Penn MLS,1552959,N,Y,40.4633031,-79.9557896
PAST SALE,November-18-2022,Single Family Residential,325 West Penn Pl,Friendship Park,PA,15224,325000,3,1.0,Friendship Park,,3227,1920,,,,Sold,,,https://www.redfin.com/PA/Pittsburgh/325-W-Penn-Pl-15224/home/74661356,West Penn MLS,1576330,N,Y,40.4614036,-79.9423317
PAST SALE,November-18-2022,Multi-Family (2-4 Unit),4765 Baum Blvd,Bloomfield,PA,15213,265000,6,3.0,Bloomfield,,3480,1920,,,,Sold,,,https://www.redfin.com/PA/Pittsburgh/4765-Baum-Blvd-15213/home/74661968,West Penn MLS,1558673,N,Y,40.4545314,-79.9479714
PAST SALE,November-18-2022,Condo/Co-op,552 N Neville St #23,Oakland,PA,15213,385000,3,2.0,Oakland,,,1972,,,1178,Sold,,,https://www.redfin.com/PA/Pittsburgh/552-N-Neville-St-15213/unit-23/home/73506306,West Penn MLS,1564242,N,Y,40.4486412,-79.9481709
PAST SALE,November-18-2022,Condo/Co-op,2635 Penn Ave #214,Downtown Pgh,PA,15222,415000,1,1.0,Downtown Pgh,937,,2020,,443,,Sold,,,https://www.redfin.com/PA/Pittsburgh/2635-Penn-Ave-15222/unit-214/home/171236229,West Penn MLS,1572267,N,Y,40.4557694,-79.9777068
PAST SALE,November-17-2022,Single Family Residential,4233 Parkman Ave,Schenley Farms,PA,15213,892000,5,3.5,Schenley Farms,2660,6786,1910,,335,,Sold,,,https://www.redfin.com/PA/Pittsburgh/4233-Parkman-Ave-15213/home/74567321,West Penn MLS,1578062,N,Y,40.4480728,-79.9574563
PAST SALE,November-16-2022,Townhouse,71 Waterfront Dr,Washington's Landing,PA,15222,705000,2,2.5,Washington's Landing,2172,1916,2000,,325,585,Sold,,,https://www.redfin.com/PA/Pittsburgh/71-Waterfront-Dr-15222/home/74774303,West Penn MLS,1566731,N,Y,40.4610271,-79.9804671
PAST SALE,November-15-2022,Single Family Residential,321-323 Gross St,Bloomfield,PA,15224,717900,6,4.5,Bloomfield,4404,7527,1992,,163,,Sold,,,https://www.redfin.com/PA/Pittsburgh/321-Gross-St-15224/home/74661332,West Penn MLS,1561419,N,Y,40.4617472,-79.944359
PAST SALE,November-15-2022,Condo/Co-op,144 N Dithridge St #215,Oakland,PA,15213,170000,2,2.0,Oakland,1753,,1940,,97,1021,Sold,,,https://www.redfin.com/PA/Pittsburgh/144-N-Dithridge-St-15213/unit-215/home/74567580,West Penn MLS,1566291,N,Y,40.4482339,-79.950786
PAST SALE,November-14-2022,Condo/Co-op,307 S Dithridge St #814,Oakland,PA,15213,585000,3,2.0,Oakland,2031,,1979,,288,,Sold,,,https://www.redfin.com/PA/Pittsburgh/307-S-Dithridge-St-15213/unit-814/home/74567827,West Penn MLS,1580329,N,Y,40.4453516,-79.9499557
PAST SALE,November-14-2022,Single Family Residential,405 Morewood Ave,Shadyside,PA,15213,750000,5,3.5,Shadyside,2957,4356,1900,,254,,Sold,,,https://www.redfin.com/PA/Pittsburgh/405-Morewood-Ave-15213/home/74662004,West Penn MLS,1563096,N,Y,40.4529961,-79.9434755
PAST SALE,November-14-2022,Single Family Residential,3451 Ligonier St,Lawrenceville,PA,15201,403500,3,2.5,Lawrenceville,2100,1058,1925,,192,,Sold,,,https://www.redfin.com/PA/Pittsburgh/3451-Ligonier-St-15201/home/74653024,West Penn MLS,1579092,N,Y,40.4632041,-79.9651896
PAST SALE,November-11-2022,Single Family Residential,4824 Sciota St,Bloomfield,PA,15224,150000,4,1.0,Bloomfield,1656,1999,1910,,91,,Sold,,,https://www.redfin.com/PA/Pittsburgh/4824-Sciota-St-15224/home/74661719,West Penn MLS,1577125,N,Y,40.4593161,-79.9468055
PAST SALE,November-10-2022,Single Family Residential,5120 Bayard St,Shadyside,PA,15232,600000,4,1.5,Shadyside,1826,4081,1920,,329,,Sold,,,https://www.redfin.com/PA/Pittsburgh/5120-Bayard-St-15232/home/74665104,West Penn MLS,1578205,N,Y,40.452452,-79.9404605
PAST SALE,,Condo/Co-op,5 Bayard Rd #920,Pittsburgh,PA,15213,180000,1,1.0,,709,,1969,,254,,,,,https://www.redfin.com/PA/Pittsburgh/5-Bayard-Rd-15213/unit-920/home/74665042,,,N,Y,40.4526167,-79.9428455
PAST SALE,November-4-2022,Single Family Residential,3917 Liberty Ave,Lawrenceville,PA,15224,287400,5,3.0,Lawrenceville,1908,1999,1900,,151,,Sold,,,https://www.redfin.com/PA/Pittsburgh/3917-Liberty-Ave-15224/home/74653095,West Penn MLS,1543415,N,Y,40.4627631,-79.9587675
PAST SALE,November-4-2022,Single Family Residential,602 Arthur St,Downtown Pgh,PA,15219,350000,4,2.5,Downtown Pgh,,3563,1995,,,17,Sold,,,https://www.redfin.com/PA/Pittsburgh/602-Arthur-St-15219/home/74773894,West Penn MLS,1564992,N,Y,40.4435698,-79.984856
PAST SALE,,Single Family Residential,232 Robinson St,Pittsburgh,PA,15213,317050,4,1.5,,2084,1820,1915,,152,,,,,https://www.redfin.com/PA/Pittsburgh/232-Robinson-St-15213/home/74571487,,,N,Y,40.4415093,-79.9654214
PAST SALE,,Single Family Residential,4706 Lorigan St,Pittsburgh,PA,15224,55000,6,1.5,,1843,3252,1880,,30,,,,,https://www.redfin.com/PA/Pittsburgh/4706-Lorigan-St-15224/home/74563499,,,N,Y,40.4588377,-79.9521676
PAST SALE,November-2-2022,Single Family Residential,5137 Woodworth St,Bloomfield,PA,15224,250000,2,1.5,Bloomfield,1720,3332,1900,,145,,Sold,,,https://www.redfin.com/PA/Pittsburgh/5137-Woodworth-St-15224/home/74662360,West Penn MLS,1576152,N,Y,40.4564413,-79.9440054
PAST SALE,November-1-2022,Single Family Residential,4728 Wallingford St,Shadyside,PA,15213,542500,7,3.0,Shadyside,,9082,1896,,,,Sold,,,https://www.redfin.com/PA/Pittsburgh/4728-Wallingford-St-15213/home/74664453,West Penn MLS,1577548,N,Y,40.4516238,-79.947935
PAST SALE,,Townhouse,4711 Bayard St,Pittsburgh,PA,15213,610000,3,2.5,,1920,1963,1965,,318,,,,,https://www.redfin.com/PA/Pittsburgh/4711-Bayard-St-15213/home/74664394,,,N,Y,40.4507405,-79.9484338
PAST SALE,,Single Family Residential,3950 Cabinet Way,Pittsburgh,PA,15224,85000,2,1.0,,1306,800,1900,,65,,,,,https://www.redfin.com/PA/Pittsburgh/3950-Cabinet-Way-15224/home/74653354,,,N,Y,40.4638636,-79.9577675
PAST SALE,October-28-2022,Single Family Residential,808 Devonshire St,Shadyside,PA,15213,1975000,6,4.5,Shadyside,5791,12000,1910,,341,,Sold,,,https://www.redfin.com/PA/Pittsburgh/808-Devonshire-St-15213/home/74665228,West Penn MLS,1573393,N,Y,40.4484274,-79.944584
PAST SALE,October-27-2022,Single Family Residential,856 Canterbury Ln,Shadyside,PA,15232,1875000,4,3.5,Shadyside,3135,43,1940,,598,,Sold,,,https://www.redfin.com/PA/Pittsburgh/856-Canterbury-Ln-15232/home/74665524,West Penn MLS,1574691,N,Y,40.448245,-79.9414145
PAST SALE,October-27-2022,Condo/Co-op,128 N Craig #604,Oakland,PA,15213,300000,3,2.0,Oakland,1680,,1957,,179,969,Sold,,,https://www.redfin.com/PA/Pittsburgh/128-N-Craig-St-15213/unit-604/home/74664807,West Penn MLS,1566566,N,Y,40.4480778,-79.9483198
PAST SALE,,Condo/Co-op,307 S Dithridge St #809,Pittsburgh,PA,15213,215000,2,2.0,,1396,,1979,,154,,,,,https://www.redfin.com/PA/Pittsburgh/307-S-Dithridge-St-15213/unit-809/home/74567823,,,N,Y,40.4453513,-79.9499554
PAST SALE,October-21-2022,Condo/Co-op,2554 Smallman St #405,Downtown Pgh,PA,15222,340000,1,1.0,Downtown Pgh,568,566,2020,,599,,Sold,,,https://www.redfin.com/PA/Pittsburgh/2554-Smallman-St-15222/unit-405/home/171259842,West Penn MLS,1574659,N,Y,40.4551286,-79.9792205
PAST SALE,October-21-2022,Multi-Family (2-4 Unit),325 Ella St,Bloomfield,PA,15224,255000,3,2.0,Bloomfield,,1559,1880,,,,Sold,,,https://www.redfin.com/PA/Pittsburgh/325-Ella-St-15224/home/74563434,West Penn MLS,1556628,N,Y,40.4623173,-79.9522836
PAST SALE,October-19-2022,Condo/Co-op,4625 Fifth Ave #800,Oakland,PA,15213,141500,2,2.0,Oakland,1200,,1967,,118,900,Sold,,,https://www.redfin.com/PA/Pittsburgh/4625-Fifth-Ave-15213/unit-800/home/177954594,West Penn MLS,1536965,N,Y,40.4472165,-79.9480654
PAST SALE,,Single Family Residential,235 S Pacific Ave,Pittsburgh,PA,15224,575000,6,3.5,,2882,4950,1915,,200,,,,,https://www.redfin.com/PA/Pittsburgh/235-S-Pacific-Ave-15224/home/74658521,,,N,Y,40.4627764,-79.9400156
PAST SALE,,Condo/Co-op,537 N Neville St Unit 4H,Pittsburgh,PA,15213,975000,2,2.5,,2039,,2007,,478,,,,,https://www.redfin.com/PA/Pittsburgh/537-N-Neville-St-15213/unit-4H/home/73563208,,,N,Y,40.4492804,-79.9480074
PAST SALE,October-18-2022,Single Family Residential,1623 Wylie Ave,Downtown Pgh,PA,15219,300000,3,1.5,Downtown Pgh,1274,1132,1996,,235,17,Sold,,,https://www.redfin.com/PA/Pittsburgh/1623-Wylie-Ave-15219/home/74773573,West Penn MLS,1540610,N,Y,40.4433712,-79.9856489
PAST SALE,,Townhouse,2709 Brackenridge St,Pittsburgh,PA,15219,23000,2,1.0,,1080,1795,1930,,21,,,,,https://www.redfin.com/PA/Pittsburgh/2709-Brackenridge-St-15219/home/74457165,,,N,Y,40.4467994,-79.966667
PAST SALE,October-17-2022,Condo/Co-op,128 N Craig St #805,Oakland,PA,15213,264000,2,2.0,Oakland,,,1957,,,765,Sold,,,https://www.redfin.com/PA/Pittsburgh/128-N-Craig-St-15213/unit-805/home/74664827,West Penn MLS,1572224,N,Y,40.4480778,-79.9483198
PAST SALE,October-13-2022,Condo/Co-op,4625 Fifth Ave #411,Oakland,PA,15213,96500,2,1.0,Oakland,,,1956,,,668,Sold,,,https://www.redfin.com/PA/Pittsburgh/4625-Fifth-Ave-15213/unit-411/home/102224844,West Penn MLS,1555127,N,Y,40.4473994,-79.9482013
PAST SALE,October-12-2022,Single Family Residential,213 S Evaline,Friendship Park,PA,15224,687500,6,2.5,Friendship Park,3661,4534,1904,,188,,Sold,,,https://www.redfin.com/PA/Pittsburgh/213-S-Evaline-St-15224/home/74658399,West Penn MLS,1569309,N,Y,40.4633918,-79.9411959
PAST SALE,October-12-2022,Condo/Co-op,537 N Neville St Unit 3B,Oakland,PA,15213,740000,2,2.0,Oakland,1570,,2007,,471,1117,Sold,,,https://www.redfin.com/PA/Pittsburgh/537-N-Neville-St-15213/unit-3B/home/74445177,West Penn MLS,1575304,N,Y,40.4492804,-79.9480074
PAST SALE,October-11-2022,Condo/Co-op,128 N Craig St #701,Oakland,PA,15213,245000,2,2.0,Oakland,1267,,1957,,193,732,Sold,,,https://www.redfin.com/PA/Pittsburgh/128-N-Craig-St-15213/unit-701/home/74664824,West Penn MLS,1571404,N,Y,40.4480778,-79.9483198
PAST SALE,October-11-2022,Condo/Co-op,2434 Smallman St #315,Downtown Pgh,PA,15222,375000,1,1.0,Downtown Pgh,1070,4356,2010,,350,257,Sold,,,https://www.redfin.com/PA/Pittsburgh/2434-Smallman-St-15222/unit-315/home/73515323,West Penn MLS,1574973,N,Y,40.4542652,-79.9807707
PAST SALE,October-6-2022,Single Family Residential,360 South Evaline,Friendship Park,PA,15224,612000,4,3.0,Friendship Park,2740,3920,1925,,223,,Sold,,,https://www.redfin.com/PA/Pittsburgh/360-S-Evaline-St-15224/home/74661370,West Penn MLS,1571749,N,Y,40.4604749,-79.9420702
PAST SALE,October-4-2022,Single Family Residential,342 Harmar St,Polish Hill,PA,15219,404000,3,3.0,Polish Hill,1800,3001,1915,,224,,Sold,,,https://www.redfin.com/PA/Pittsburgh/342-Harmar-St-15219/home/74562230,West Penn MLS,1568675,N,Y,40.4572213,-79.9675485
PAST SALE,October-4-2022,Single Family Residential,336 S Evaline St,Friendship Park,PA,15224,308000,3,1.0,Friendship Park,1879,3898,1924,,164,,Sold,,,https://www.redfin.com/PA/Pittsburgh/336-S-Evaline-St-15224/home/73530193,West Penn MLS,1563127,N,Y,40.4612113,-79.9419372
PAST SALE,October-3-2022,Condo/Co-op,2901 Smallman St Unit 2G,Downtown Pgh,PA,15201,500000,1,1.0,Downtown Pgh,1914,,1987,,261,432,Sold,,,https://www.redfin.com/PA/Pittsburgh/2901-Smallman-St-15201/unit-2G/home/74775222,West Penn MLS,1559531,N,Y,40.4589188,-79.974959
PAST SALE,October-1-2022,Multi-Family (2-4 Unit),5 Watt St,Hill District,PA,15219,217000,5,3.0,Hill District,,6429,1920,,,,Sold,,,https://www.redfin.com/PA/Pittsburgh/5-Watt-St-15219/home/74457125,West Penn MLS,1546441,N,Y,40.4467526,-79.9689504
PAST SALE,September-30-2022,Condo/Co-op,5023 Frew St Unit 1G,Squirrel Hill,PA,15213,599000,2,2.0,Squirrel Hill,,,1939,,,3456,Sold,,,https://www.redfin.com/PA/Pittsburgh/5023-Frew-St-15213/unit-1-G/home/147519282,West Penn MLS,1564243,N,Y,40.4406584,-79.9409255
PAST SALE,September-30-2022,Single Family Residential,923 Bryn Mawr Rd,Schenley Heights,PA,15219,103000,4,2.5,Schenley Heights,2358,2861,1925,,44,,Sold,,,https://www.redfin.com/PA/Pittsburgh/923-Bryn-Mawr-Rd-15219/home/74567558,West Penn MLS,1563724,N,Y,40.4518194,-79.9578387
PAST SALE,September-29-2022,Single Family Residential,5223 Coral St,Friendship Park,PA,15224,395000,4,1.5,Friendship Park,1232,2265,1910,,321,,Sold,,,https://www.redfin.com/PA/Pittsburgh/5223-Coral-St-15224/home/74658384,West Penn MLS,1570147,N,Y,40.4638814,-79.9391413
PAST SALE,September-29-2022,Condo/Co-op,4601 Fifth Ave #426,Oakland,PA,15213,148000,3,2.0,Oakland,1115,,1958,,133,1063,Sold,,,https://www.redfin.com/PA/Pittsburgh/4601-Fifth-Ave-15213/unit-426/home/147498831,West Penn MLS,1538278,N,Y,40.447339,-79.948719
PAST SALE,September-28-2022,Single Family Residential,506 Devonshire,Shadyside,PA,15213,2093000,5,4.5,Shadyside,4152,435,2000,,504,,Sold,,,https://www.redfin.com/PA/Pittsburgh/506-Devonshire-St-15213/home/74664414,West Penn MLS,1566400,N,Y,40.4510563,-79.945562
PAST SALE,September-28-2022,Single Family Residential,3209 Dobson St,Lawrenceville,PA,15219,584479,3,3.5,Lawrenceville,2971,,2020,,197,,Sold,,,https://www.redfin.com/PA/Pittsburgh/3209-Dobson-St-15219/home/143077357,West Penn MLS,1466584,N,Y,40.458025,-79.965395
PAST SALE,September-27-2022,Single Family Residential,501 Amberson Ave,Shadyside,PA,15232,655000,3,2.5,Shadyside,2243,4081,1920,,292,,Sold,,,https://www.redfin.com/PA/Pittsburgh/501-Amberson-Ave-15232/home/74664694,West Penn MLS,1570138,N,Y,40.4521508,-79.9412308
PAST SALE,,Townhouse,640 Hollace St,Pittsburgh,PA,15219,69000,2,1.0,,930,1014,1928,,74,,,,,https://www.redfin.com/PA/Pittsburgh/640-Hollace-St-15219/home/73516110,,,N,Y,40.4509624,-79.9678688
PAST SALE,September-23-2022,Condo/Co-op,5 Bayard Rd #915,Shadyside,PA,15213,180000,1,1.0,Shadyside,848,,1969,,212,,Sold,,,https://www.redfin.com/PA/Pittsburgh/5-Bayard-Rd-15213/unit-915/home/74665032,West Penn MLS,1570852,N,Y,40.4526167,-79.9428455
PAST SALE,September-23-2022,Single Family Residential,4271 Bryn Mawr Rd,Schenley Heights,PA,15219,239500,3,2.0,Schenley Heights,2296,4416,1925,,104,,Sold,,,https://www.redfin.com/PA/Pittsburgh/4271-Bryn-Mawr-Rd-15219/home/73573718,West Penn MLS,1566457,N,Y,40.4509538,-79.9570629
PAST SALE,September-23-2022,Condo/Co-op,5 Bayard St #615,Shadyside,PA,15213,178000,1,1.0,Shadyside,848,,1969,,210,469,Sold,,,https://www.redfin.com/PA/Pittsburgh/5-Bayard-Rd-15213/unit-615/home/74665167,West Penn MLS,1570102,N,Y,40.4526045,-79.9428352
PAST SALE,September-23-2022,Condo/Co-op,4625 Fifth Ave #200,Oakland,PA,15213,143000,3,2.0,Oakland,1200,,1956,,119,866,Sold,,,https://www.redfin.com/PA/Pittsburgh/4625-Fifth-Ave-15213/unit-200/home/180753884,West Penn MLS,1568532,N,Y,40.4472165,-79.9480654
PAST SALE,September-22-2022,Multi-Family (2-4 Unit),533 S Winebiddle St,Bloomfield,PA,15224,294999,3,2.0,Bloomfield,,3920,1901,,,,Sold,,,https://www.redfin.com/PA/Pittsburgh/533-S-Winebiddle-St-15224/home/74661738,West Penn MLS,1563591,N,Y,40.4577974,-79.9443031
PAST SALE,September-22-2022,Single Family Residential,151 Pearl St,Bloomfield,PA,15224,340000,2,1.5,Bloomfield,1184,3175,1910,,287,,Sold,,,https://www.redfin.com/PA/Pittsburgh/151-Pearl-St-15224/home/74657854,West Penn MLS,1564725,N,Y,40.4642447,-79.9482061
PAST SALE,September-20-2022,Condo/Co-op,5 Bayard Rd #210,Shadyside,PA,15213,169000,1,1.0,Shadyside,840,,1969,,201,465,Sold,,,https://www.redfin.com/PA/Pittsburgh/5-Bayard-Rd-15213/unit-210/home/74664725,West Penn MLS,1561785,N,Y,40.4526167,-79.9428455
PAST SALE,,Multi-Family (2-4 Unit),3440 Melwood Ave,Pittsburgh,PA,15219,180000,2,2.0,,1470,2860,1900,,122,,,,,https://www.redfin.com/PA/Pittsburgh/3440-Melwood-Ave-15219/home/74563673,,,N,Y,40.4587767,-79.9617367
PAST SALE,September-16-2022,Condo/Co-op,5 Bayard Rd #719,Shadyside,PA,15213,221950,2,2.0,Shadyside,,,1969,,,703,Sold,,,https://www.redfin.com/PA/Pittsburgh/5-Bayard-Rd-15213/unit-719/home/74665125,West Penn MLS,1571238,N,Y,40.4526045,-79.9428352
PAST SALE,September-16-2022,Condo/Co-op,425 N Neville St #303,Oakland,PA,15213,185000,1,1.0,Oakland,986,,1980,,188,395,Sold,,,https://www.redfin.com/PA/Pittsburgh/425-N-Neville-St-15213/unit-303/home/74664484,West Penn MLS,1566064,N,Y,40.4509819,-79.9484432
PAST SALE,September-14-2022,Condo/Co-op,5 Bayard Rd #221,Shadyside,PA,15213,166000,1,1.0,Shadyside,709,,1969,,234,392,Sold,,,https://www.redfin.com/PA/Pittsburgh/5-Bayard-Rd-15213/unit-221/home/74664728,West Penn MLS,1563794,N,Y,40.4526045,-79.9428352
PAST SALE,September-14-2022,Condo/Co-op,540 N Neville St #806,Oakland,PA,15213,278000,2,2.0,Oakland,1680,,1973,,165,874,Sold,,,https://www.redfin.com/PA/Pittsburgh/540-N-Neville-St-15213/unit-806/home/73553933,West Penn MLS,1566622,N,Y,40.4490295,-79.9486984
PAST SALE,,Other,618 Elmore St,Pittsburgh,PA,15219,13973,,,,,6660,,,,,,,,https://www.redfin.com/PA/Pittsburgh/618-Elmore-St-15219/home/174700054,,,N,Y,40.44628,-79.978053
PAST SALE,September-13-2022,Townhouse,202 Chesterfield,Oakland,PA,15213,190000,3,1.0,Oakland,,,,,,,Sold,,,https://www.redfin.com/PA/Pittsburgh/202-Chesterfield-Rd-15213/home/74571164,West Penn MLS,1529512,N,Y,40.4404171,-79.9628429
PAST SALE,September-12-2022,Single Family Residential,4769 Wallingford St,Shadyside,PA,15213,875000,6,3.5,Shadyside,4293,8598,1910,,204,,Sold,,,https://www.redfin.com/PA/Pittsburgh/4769-Wallingford-St-15213/home/73580023,West Penn MLS,1557928,N,Y,40.4524266,-79.9468786
PAST SALE,September-8-2022,Single Family Residential,4808 Cypress St,Bloomfield,PA,15224,296250,2,2.0,Bloomfield,1290,1028,1910,,230,,Sold,,,https://www.redfin.com/PA/Pittsburgh/4808-Cypress-St-15224/home/74661585,West Penn MLS,1569726,N,Y,40.4588555,-79.9475926
PAST SALE,September-8-2022,Condo/Co-op,825 Morewood Ave Unit G11,Shadyside,PA,15213,317620,2,1.5,Shadyside,1176,479,1960,,270,693,Sold,,,https://www.redfin.com/PA/Pittsburgh/825-Morewood-Ave-15213/unit-G11/home/164169189,West Penn MLS,1554738,N,Y,40.4478094,-79.9422552
PAST SALE,September-7-2022,Single Family Residential,3942 Howley St,Lawrenceville,PA,15224,210000,2,1.0,Lawrenceville,1088,1999,1900,,193,,Sold,,,https://www.redfin.com/PA/Pittsburgh/3942-Howley-St-15224/home/74653083,West Penn MLS,1550350,N,Y,40.4632168,-79.9579416
PAST SALE,September-7-2022,Single Family Residential,4936 Ellsworth Ave,Shadyside,PA,15213,605000,4,2.5,Shadyside,1750,5092,1950,,346,,Sold,,,https://www.redfin.com/PA/Pittsburgh/4936-Ellsworth-Ave-15213/home/74664678,West Penn MLS,1563439,N,Y,40.4505539,-79.9435281
PAST SALE,September-2-2022,Single Family Residential,3937 Howley St,Lawrenceville,PA,15224,145000,3,1.0,Lawrenceville,1528,1938,1900,,95,,Sold,,,https://www.redfin.com/PA/Pittsburgh/3937-Howley-St-15224/home/74653184,West Penn MLS,1570014,N,Y,40.4635571,-79.9582758
PAST SALE,September-2-2022,Condo/Co-op,4625 Fifth Ave #206,Oakland,PA,15213,75000,2,1.0,Oakland,1040,,1956,,72,792,Sold,,,https://www.redfin.com/PA/Pittsburgh/4625-Fifth-Ave-15213/unit-206/home/102201775,West Penn MLS,1546084,N,Y,40.4473994,-79.9482013
PAST SALE,September-2-2022,Condo/Co-op,2545 Penn Ave #506,Downtown Pgh,PA,15222,434900,1,1.5,Downtown Pgh,935,,2020,,465,315,Sold,,,https://www.redfin.com/PA/Pittsburgh/2545-Penn-Ave-15222/unit-506/home/145252152,West Penn MLS,1560651,N,Y,40.4548321,-79.9789136
PAST SALE,,Parking,3120 Smallman St,Pittsburgh,PA,15201,438628,,,,,6000,,,,,,,,https://www.redfin.com/PA/Pittsburgh/3120-Smallman-St-15201/home/163821657,,,N,Y,40.4608962,-79.9713735
PAST SALE,August-31-2022,Single Family Residential,406 S Evaline St,Friendship Park,PA,15224,380000,5,3.0,Friendship Park,2483,2530,1900,,153,,Sold,,,https://www.redfin.com/PA/Pittsburgh/406-S-Evaline-St-15224/home/74661759,West Penn MLS,1546008,N,Y,40.4596178,-79.9421539
PAST SALE,August-30-2022,Single Family Residential,245 S Mathilda St,Friendship Park,PA,15224,515000,4,3.5,Friendship Park,2796,3698,1920,,184,,Sold,,,https://www.redfin.com/PA/Pittsburgh/245-S-Mathilda-St-15224/home/74658355,West Penn MLS,1566976,N,Y,40.4636934,-79.9461027
PAST SALE,August-30-2022,Condo/Co-op,128 N Craig St #705,Oakland,PA,15213,270000,2,2.0,Oakland,1336,,1957,,202,843,Sold,,,https://www.redfin.com/PA/Pittsburgh/128-N-Craig-St-15213/unit-705/home/74664814,West Penn MLS,1564607,N,Y,40.4480778,-79.9483198
PAST SALE,August-26-2022,Single Family Residential,833 Bryn Mawr Rd,Schenley Heights,PA,15219,230000,4,1.5,Schenley Heights,1315,3998,1955,,175,,Sold,,,https://www.redfin.com/PA/Pittsburgh/833-Bryn-Mawr-Rd-15219/home/74567216,West Penn MLS,1564269,N,Y,40.4522289,-79.9590297
PAST SALE,August-25-2022,Ranch,4016 Liberty Ave,Bloomfield,PA,15224,175000,0,,Bloomfield,,3001,,,,,Sold,,,https://www.redfin.com/PA/Pittsburgh/4016-Liberty-Ave-15224/home/163694000,West Penn MLS,1535630,N,Y,40.4627021,-79.9564527
PAST SALE,August-24-2022,Single Family Residential,332 West Penn Pl,Friendship Park,PA,15224,442000,4,2.0,Friendship Park,1809,3920,1920,,244,,Sold,,,https://www.redfin.com/PA/Pittsburgh/332-W-Penn-Pl-15224/home/74661208,West Penn MLS,1569072,N,Y,40.4612483,-79.9426931
PAST SALE,August-24-2022,Condo/Co-op,146 N Bellefield #701,Oakland,PA,15213,920892,3,3.0,Oakland,3108,,1986,,296,1649,Sold,,,https://www.redfin.com/PA/Pittsburgh/146-N-Bellefield-Ave-15213/unit-701/home/74567844,West Penn MLS,1543464,N,Y,40.448027,-79.9517524
PAST SALE,August-22-2022,Multi-Family (2-4 Unit),3358 Ridgway St,Polish Hill,PA,15213,310000,2,2.0,Polish Hill,,1877,1900,,,,Sold,,,https://www.redfin.com/PA/Pittsburgh/3358-Ridgway-St-15213/home/74564313,West Penn MLS,1555657,N,Y,40.4559188,-79.9638372
PAST SALE,August-19-2022,Single Family Residential,4010 Howley St,Lawrenceville,PA,15224,278000,2,2.5,Lawrenceville,1076,714,1900,,258,,Sold,,,https://www.redfin.com/PA/Pittsburgh/4010-Howley-St-15224/home/74653339,West Penn MLS,1562255,N,Y,40.4637912,-79.956899
PAST SALE,August-18-2022,Condo/Co-op,220 N Bellefield Ave #203,Oakland,PA,15213,780000,3,2.0,Oakland,1996,300,1997,,391,1112,Sold,,,https://www.redfin.com/PA/Pittsburgh/220-N-Bellefield-Ave-15213/unit-203/home/74775536,West Penn MLS,1535417,N,Y,40.4490999,-79.9527577
PAST SALE,August-17-2022,Condo/Co-op,5 Bayard Rd #821,Shadyside,PA,15213,164000,1,1.0,Shadyside,709,,1969,,231,392,Sold,,,https://www.redfin.com/PA/Pittsburgh/5-Bayard-Rd-15213/unit-821/home/73579948,West Penn MLS,1548640,N,Y,40.4526045,-79.9428352
PAST SALE,August-16-2022,Single Family Residential,424 Orwell Way,Bloomfield,PA,15224,237500,3,1.0,Bloomfield,,1132,1900,,,,Sold,,,https://www.redfin.com/PA/Pittsburgh/424-Orwell-Way-15224/home/145085606,West Penn MLS,1550162,N,Y,40.4609662,-79.9527471
PAST SALE,August-16-2022,Multi-Family (2-4 Unit),3202 Brereton,Polish Hill,PA,15219,490000,3,2.0,Polish Hill,,3001,1900,,,,Sold,,,https://www.redfin.com/PA/Pittsburgh/3202-Brereton-St-15219/home/74561610,West Penn MLS,1561499,N,Y,40.4564927,-79.9661798
PAST SALE,August-15-2022,Condo/Co-op,144 N Dithridge St #107,Oakland,PA,15213,140000,1,1.0,Oakland,1192,,1940,,117,692,Sold,,,https://www.redfin.com/PA/Pittsburgh/144-N-Dithridge-St-15213/unit-107/home/73500730,West Penn MLS,1560604,N,Y,40.4482339,-79.950786
PAST SALE,August-15-2022,Condo/Co-op,2419 Smallman St #504,Downtown Pgh,PA,15222,1075000,2,2.0,Downtown Pgh,1939,,2016,,554,533,Sold,,,https://www.redfin.com/PA/Pittsburgh/2419-Smallman-St-15222/unit-504/home/145085603,West Penn MLS,1546988,N,Y,40.454678,-79.9809151
PAST SALE,August-12-2022,Single Family Residential,519 Osceola St,Bloomfield,PA,15224,415000,4,2.5,Bloomfield,,2178,1926,,,,Sold,,,https://www.redfin.com/PA/Pittsburgh/519-Osceola-St-15224/home/74662299,West Penn MLS,1557681,N,Y,40.4572811,-79.9421465
PAST SALE,August-12-2022,Townhouse,43 Waterfront Dr,Washington's Landing,PA,15222,515000,3,2.5,Washington's Landing,1998,1611,1998,,258,585,Sold,,,https://www.redfin.com/PA/Pittsburgh/43-Waterfront-Dr-15222/home/74561533,West Penn MLS,1555194,N,Y,40.4622141,-79.9796202
PAST SALE,August-12-2022,Single Family Residential,4733 Bayard,Shadyside,PA,15213,1250000,5,4.5,Shadyside,4234,9086,1894,,295,,Sold,,,https://www.redfin.com/PA/Pittsburgh/4733-Bayard-St-15213/home/74664404,West Penn MLS,1552086,N,Y,40.4511216,-79.947272
PAST SALE,August-11-2022,Condo/Co-op,2434 Smallman St Unit 418,Downtown Pgh,PA,15222,350000,1,1.0,Downtown Pgh,878,871,2011,,399,211,Sold,,,https://www.redfin.com/PA/Pittsburgh/2434-Smallman-St-15222/unit-418/home/74448780,West Penn MLS,1552303,N,Y,40.4542652,-79.9807707
PAST SALE,August-10-2022,Single Family Residential,5215 Celia Pl,Friendship Park,PA,15224,470000,3,2.0,Friendship Park,1618,4146,1958,,290,,Sold,,,https://www.redfin.com/PA/Pittsburgh/5215-Celia-Pl-15224/home/74661942,West Penn MLS,1563515,N,Y,40.4581832,-79.9401904
PAST SALE,August-9-2022,Condo/Co-op,4625 Fifth Ave #309,Oakland,PA,15213,95000,2,1.0,Oakland,1000,,1956,,95,716,Sold,,,https://www.redfin.com/PA/Pittsburgh/4625-Fifth-Ave-15213/unit-309/home/147535568,West Penn MLS,1543995,N,Y,40.4473994,-79.9482013
PAST SALE,,Other,2900 Webster Ave,Pittsburgh,PA,15219,299000,8,4.0,,4672,5862,1900,,64,,,,,https://www.redfin.com/PA/Pittsburgh/2900-Webster-Ave-15219/home/74456950,,,N,Y,40.451701,-79.967004
PAST SALE,August-5-2022,Condo/Co-op,2554 Smallman St #202,Downtown Pgh,PA,15222,469000,1,1.5,Downtown Pgh,776,126,2020,,604,257,Sold,,,https://www.redfin.com/PA/Pittsburgh/2554-Smallman-St-15222/unit-202/home/160392246,West Penn MLS,1547858,N,Y,40.4551286,-79.9792205
PAST SALE,August-5-2022,Single Family Residential,3204 1/2 Dobson St,Polish Hill,PA,15219,293500,2,2.0,Polish Hill,,2800,1890,,,,Sold,,,https://www.redfin.com/PA/Pittsburgh/3204-1-2-Dobson-St-15219/home/73548837,West Penn MLS,1556594,N,Y,40.4576002,-79.9655023
PAST SALE,August-4-2022,Townhouse,4709 Wallingford St,Shadyside,PA,15213,750000,4,2.5,Shadyside,2160,1890,2012,,347,87,Sold,,,https://www.redfin.com/PA/Pittsburgh/4709-Wallingford-St-15213/home/73515671,West Penn MLS,1559656,N,Y,40.4517532,-79.9488412
PAST SALE,August-4-2022,Single Family Residential,3624 Mintwood St,Lawrenceville,PA,15201,424900,3,1.5,Lawrenceville,,1899,1890,,,,Sold,,,https://www.redfin.com/PA/Pittsburgh/3624-Mintwood-St-15201/home/74652947,West Penn MLS,1557129,N,Y,40.4632092,-79.9631718
PAST SALE,August-3-2022,Single Family Residential,414 S Evaline St,Friendship Park,PA,15224,451250,4,2.5,Friendship Park,,,1880,,,,Sold,,,https://www.redfin.com/PA/Pittsburgh/414-S-Evaline-St-15224/home/74661752,West Penn MLS,1558779,N,Y,40.4592297,-79.942245
PAST SALE,August-2-2022,Single Family Residential,5131 Ellsworth Ave,Shadyside,PA,15232,1365000,4,4.0,Shadyside,3036,16727,1885,,450,,Sold,,,https://www.redfin.com/PA/Pittsburgh/5131-Ellsworth-Ave-15232/home/74665072,West Penn MLS,1554076,N,Y,40.4519522,-79.9399744
PAST SALE,August-2-2022,Multi-Family (2-4 Unit),191 Morewood Ave,Shadyside,PA,15213,224500,4,3.0,Shadyside,,4891,1910,,,,Sold,,,https://www.redfin.com/PA/Pittsburgh/191-Morewood-Ave-15213/home/73530093,West Penn MLS,1561967,N,Y,40.4561209,-79.9468386
PAST SALE,July-29-2022,Condo/Co-op,5023 Frew St Unit C-4,Squirrel Hill,PA,15213,675000,3,3.5,Squirrel Hill,2500,,1927,,270,5403,Sold,,,https://www.redfin.com/PA/Pittsburgh/5023-Frew-St-15213/unit-C-4/home/175861559,West Penn MLS,1513308,N,Y,40.4406584,-79.9409255
PAST SALE,July-29-2022,Condo/Co-op,4625 Fifth Ave #303,Oakland,PA,15213,95500,2,2.0,Oakland,,,1956,,,749,Sold,,,https://www.redfin.com/PA/Pittsburgh/4625-Fifth-Ave-15213/unit-303/home/147524232,West Penn MLS,1528572,N,Y,40.4473994,-79.9482013
PAST SALE,July-29-2022,Single Family Residential,424 Pearl St,Bloomfield,PA,15224,290000,2,1.0,Bloomfield,1300,1372,1900,,223,,Sold,,,https://www.redfin.com/PA/Pittsburgh/424-Pearl-St-15224/home/74563403,West Penn MLS,1557406,N,Y,40.4604003,-79.9514363
PAST SALE,July-29-2022,Single Family Residential,517 Lisbon St,Schenley Heights,PA,15213,9500,0,,Schenley Heights,,2565,,,,,Sold,,,https://www.redfin.com/PA/Pittsburgh/517-Lisbon-St-15213/home/163680745,West Penn MLS,1560397,N,Y,40.4565916,-79.956925
PAST SALE,July-29-2022,Single Family Residential,341 West Penn Pl,Bloomfield,PA,15224,255000,3,1.0,Bloomfield,1388,2604,1925,,184,,Sold,,,https://www.redfin.com/PA/Pittsburgh/341-W-Penn-Pl-15224/home/74661233,West Penn MLS,1558146,N,Y,40.4609261,-79.9423873
PAST SALE,July-27-2022,Single Family Residential,1620 Harpster St,Troy Hill,PA,15212,360000,3,2.5,Troy Hill,2310,1041,1900,,156,,Sold,,,https://www.redfin.com/PA/Pittsburgh/1620-Harpster-St-15212/home/74650887,West Penn MLS,1560262,N,Y,40.4643075,-79.9842784
PAST SALE,July-25-2022,Multi-Family (5+ Unit),1535-1537 Lowrie St,Troy Hill,PA,15212,615000,8,4.0,Troy Hill,,,,,,,Sold,,,https://www.redfin.com/PA/Pittsburgh/1535-Lowrie-St-15212/home/75165578,West Penn MLS,1498238,N,Y,40.461999,-79.9838511
PAST SALE,July-25-2022,Condo/Co-op,128 N Craig St #715,Oakland,PA,15213,178000,1,1.0,Oakland,857,,1957,,208,489,Sold,,,https://www.redfin.com/PA/Pittsburgh/128-N-Craig-St-15213/unit-715/home/74664834,West Penn MLS,1559413,N,Y,40.4480778,-79.9483198
PAST SALE,July-22-2022,Condo/Co-op,2554 Smallman St #505,Downtown Pgh,PA,15222,455000,1,1.5,Downtown Pgh,870,,2020,,523,287,Sold,,,https://www.redfin.com/PA/Pittsburgh/2554-Smallman-St-15222/unit-505/home/171259848,West Penn MLS,1554447,N,Y,40.4551286,-79.9792205
PAST SALE,July-22-2022,Condo/Co-op,144 N Dithridge St #714,Oakland,PA,15213,260000,3,2.0,Oakland,1456,,1940,,179,848,Sold,,,https://www.redfin.com/PA/Pittsburgh/144-N-Dithridge-St-15213/unit-714/home/74567597,West Penn MLS,1552411,N,Y,40.4482339,-79.950786
PAST SALE,July-20-2022,Condo/Co-op,552 N Neville St #84,Oakland,PA,15213,315000,2,2.0,Oakland,1593,,1972,,198,1135,Sold,,,https://www.redfin.com/PA/Pittsburgh/552-N-Neville-St-15213/unit-84/home/74665329,West Penn MLS,1553825,N,Y,40.448632,-79.9481535
PAST SALE,July-19-2022,Condo/Co-op,4625 Fifth Ave #709,Oakland,PA,15213,94500,2,1.0,Oakland,1000,,1957,,95,776,Sold,,,https://www.redfin.com/PA/Pittsburgh/4625-Fifth-Ave-15213/unit-709/home/147588861,West Penn MLS,1506775,N,Y,40.4473994,-79.9482013
PAST SALE,July-18-2022,Townhouse,31 Waterfront Dr,Washington's Landing,PA,15222,575000,2,3.5,Washington's Landing,1574,1437,1997,,365,585,Sold,,,https://www.redfin.com/PA/Pittsburgh/31-Waterfront-Dr-15222/home/74651752,West Penn MLS,1554973,N,Y,40.4630409,-79.978709
PAST SALE,July-18-2022,Condo/Co-op,220 N Dithridge St #906,Oakland,PA,15213,383000,2,2.0,Oakland,1546,,1972,,248,690,Sold,,,https://www.redfin.com/PA/Pittsburgh/220-N-Dithridge-St-15213/unit-906/home/74567716,West Penn MLS,1555176,N,Y,40.4498393,-79.9517524
PAST SALE,July-18-2022,Single Family Residential,425 Ella St,Bloomfield,PA,15224,320000,2,1.0,Bloomfield,1561,2739,1900,,205,,Sold,,,https://www.redfin.com/PA/Bloomfield/425-Ella-St-15224/home/74563447,West Penn MLS,1552839,N,Y,40.4612014,-79.9531838
PAST SALE,July-15-2022,Single Family Residential,1045 Devon Rd,Squirrel Hill,PA,15213,1475000,6,5.0,Squirrel Hill,6026,21745,1900,,245,,Sold,,,https://www.redfin.com/PA/Pittsburgh/1045-Devon-Rd-15213/home/74665909,West Penn MLS,1541026,N,Y,40.4461119,-79.9397751
PAST SALE,,Single Family Residential,3380 Webster Ave,Pittsburgh,PA,15219,190000,4,2.0,,2212,2800,1930,,86,,,,,https://www.redfin.com/PA/Pittsburgh/3380-Webster-Ave-15219/home/74564003,,,N,Y,40.4544742,-79.9623051
PAST SALE,July-15-2022,Condo/Co-op,5000 5th Ave #208,Shadyside,PA,15232,850000,3,2.0,Shadyside,3058,,1985,,278,1591,Sold,,,https://www.redfin.com/PA/Pittsburgh/5000-5th-Ave-15232/unit-208/home/74665916,West Penn MLS,1557998,N,Y,40.4470861,-79.9416767
PAST SALE,July-15-2022,Condo/Co-op,5 Bayard Rd #710,Shadyside,PA,15213,183000,1,1.0,Shadyside,840,,1969,,218,465,Sold,,,https://www.redfin.com/PA/Pittsburgh/5-Bayard-Rd-15213/unit-710/home/74665130,West Penn MLS,1561348,N,Y,40.4526045,-79.9428352
PAST SALE,,Multi-Family (2-4 Unit),4612 Filmore St,Pittsburgh,PA,15213,800000,6,2.0,,4419,3250,1900,,181,,,,,https://www.redfin.com/PA/Pittsburgh/4612-Filmore-St-15213/home/73530494,,,N,Y,40.4451448,-79.9482195
PAST SALE,July-14-2022,Condo/Co-op,2419 Smallman St #308,Downtown Pgh,PA,15222,420700,1,1.0,Downtown Pgh,1034,,2016,,407,298,Sold,,,https://www.redfin.com/PA/Pittsburgh/2419-Smallman-St-15222/unit-308/home/75128239,West Penn MLS,1553821,N,Y,40.454678,-79.9809151
PAST SALE,July-13-2022,Single Family Residential,4068 Howley St,Bloomfield,PA,15224,368000,3,1.0,Bloomfield,1476,1999,1900,,249,,Sold,,,https://www.redfin.com/PA/Pittsburgh/4068-Howley-St-15224/home/74653277,West Penn MLS,1552199,N,Y,40.4639372,-79.9546522
PAST SALE,July-11-2022,Single Family Residential,259 Dunseith St,Oakland,PA,15213,341200,3,2.0,Oakland,1318,1542,1910,,259,,Sold,,,https://www.redfin.com/PA/Pittsburgh/259-Dunseith-St-15213/home/73501024,West Penn MLS,1555083,N,Y,40.4424575,-79.9652248
PAST SALE,July-11-2022,Condo/Co-op,144 N Dithridge St #816,Oakland,PA,15213,185000,1,1.0,Oakland,983,178,1940,,188,573,Sold,,,https://www.redfin.com/PA/Pittsburgh/144-N-Dithridge-St-15213/unit-816/home/74567581,West Penn MLS,1538262,N,Y,40.4482339,-79.950786
PAST SALE,July-8-2022,Single Family Residential,3018 Wiggins,Polish Hill,PA,15219,269000,2,1.5,Polish Hill,1026,3929,1987,,262,,Sold,,,https://www.redfin.com/PA/Pittsburgh/3018-Wiggins-St-15219/home/74775201,West Penn MLS,1555885,N,Y,40.4572383,-79.9694524
PAST SALE,July-6-2022,Townhouse,2 Ellsworth Ter,Shadyside,PA,15213,450000,4,2.5,Shadyside,1764,1668,1910,,255,,Sold,,,https://www.redfin.com/PA/Pittsburgh/2-Ellsworth-Ter-15213/home/74665341,West Penn MLS,1553541,N,Y,40.4494499,-79.9466412
PAST SALE,July-6-2022,Single Family Residential,222 S Millvale Ave,Bloomfield,PA,15224,408000,3,2.5,Bloomfield,1672,2705,1910,,244,,Sold,,,https://www.redfin.com/PA/Pittsburgh/222-S-Millvale-Ave-15224/home/74658337,West Penn MLS,1555997,N,Y,40.4640973,-79.9456547
PAST SALE,July-5-2022,Condo/Co-op,4625 Fifth Ave #706,Oakland,PA,15213,104000,3,1.0,Oakland,1000,,1961,,104,780,Sold,,,https://www.redfin.com/PA/Pittsburgh/4625-Fifth-Ave-15213/unit-706/home/102203324,West Penn MLS,1546479,N,Y,40.4473994,-79.9482013
PAST SALE,July-5-2022,Single Family Residential,204 S Atlantic,Shadyside,PA,15224,527500,4,2.0,Shadyside,2611,3354,1927,,202,,Sold,,,https://www.redfin.com/PA/Pittsburgh/204-S-Atlantic-Ave-15224/home/74658533,West Penn MLS,1556662,N,Y,40.4634872,-79.9390493
PAST SALE,July-1-2022,Condo/Co-op,5 Bayard Rd #202,Shadyside,PA,15213,138000,1,1.0,Shadyside,709,,1969,,195,392,Sold,,,https://www.redfin.com/PA/Pittsburgh/5-Bayard-Rd-15213/unit-202/home/74664717,West Penn MLS,1507767,N,Y,40.4526045,-79.9428352
PAST SALE,July-1-2022,Single Family Residential,3612 Mintwood St,Lawrenceville,PA,15201,450000,3,1.5,Lawrenceville,1608,1799,1890,,280,,Sold,,,https://www.redfin.com/PA/Pittsburgh/3612-Mintwood-St-15201/home/74652941,West Penn MLS,1557809,N,Y,40.463175,-79.9636082
PAST SALE,June-30-2022,Condo/Co-op,5 Bayard Rd #808,Shadyside,PA,15213,171000,1,1.0,Shadyside,,,1969,,,494,Sold,,,https://www.redfin.com/PA/Pittsburgh/5-Bayard-Rd-15213/unit-808/home/74665140,West Penn MLS,1554802,N,Y,40.4526045,-79.9428352
PAST SALE,June-30-2022,Single Family Residential,1356 Herman St,Troy Hill,PA,15212,222000,3,2.5,Troy Hill,2208,4704,,,101,,Sold,,,https://www.redfin.com/PA/Pittsburgh/1356-Herman-St-15212/home/74557146,West Penn MLS,1550190,N,Y,40.4605826,-79.9869205
PAST SALE,June-30-2022,Single Family Residential,514 Morewood Ave,Shadyside,PA,15213,535000,4,2.0,Shadyside,1829,6011,1950,,293,,Sold,,,https://www.redfin.com/PA/Pittsburgh/514-Morewood-Ave-15213/home/74664700,West Penn MLS,1555251,N,Y,40.4513083,-79.9434755
PAST SALE,June-30-2022,Single Family Residential,412 Pearl St,Bloomfield,PA,15224,255000,4,1.0,Bloomfield,1814,2613,1910,,141,,Sold,,,https://www.redfin.com/PA/Pittsburgh/412-Pearl-St-15224/home/73573920,West Penn MLS,1547099,N,Y,40.4606965,-79.9512388
PAST SALE,June-30-2022,Condo/Co-op,825 Morewood Ave Unit L2,Oakland,PA,15213,400000,4,3.0,Oakland,2357,,1949,,170,1326,Sold,,,https://www.redfin.com/PA/Pittsburgh/825-Morewood-Ave-15213/unit-L2/home/73579576,West Penn MLS,1554731,N,Y,40.4477993,-79.9422526
PAST SALE,June-30-2022,Single Family Residential,352 Garnet Way,Bloomfield,PA,15224,120000,1,1.0,Bloomfield,301,2121,,,399,,Sold,,,https://www.redfin.com/PA/Pittsburgh/352-Garnet-Way-15224/home/73500637,West Penn MLS,1554293,N,Y,40.4604654,-79.9503874
PAST SALE,June-30-2022,Condo/Co-op,128 N Craig St #711,Oakland,PA,15213,212287,2,2.0,Oakland,1267,,1957,,168,732,Sold,,,https://www.redfin.com/PA/Pittsburgh/128-N-Craig-St-15213/unit-711/home/74664819,West Penn MLS,1555469,N,Y,40.4480778,-79.9483198
PAST SALE,June-28-2022,Condo/Co-op,4601 Fifth Ave #822,Oakland,PA,15213,120000,2,1.0,Oakland,,,1958,,,820,Sold,,,https://www.redfin.com/PA/Pittsburgh/4601-Fifth-Ave-15213/unit-822/home/147524265,West Penn MLS,1539274,N,Y,40.447339,-79.948719
PAST SALE,June-28-2022,Condo/Co-op,154 N Bellefield #24,Oakland,PA,15213,164000,1,1.0,Oakland,900,,1958,,182,1153,Sold,,,https://www.redfin.com/PA/Pittsburgh/154-N-Bellefield-Ave-15213/unit-24/home/147496711,West Penn MLS,1547598,N,Y,40.4482076,-79.9520146
PAST SALE,,Single Family Residential,4747 Bayard St,Pittsburgh,PA,15213,1600000,6,3.5,,4682,13627,1900,,342,,,,,https://www.redfin.com/PA/Pittsburgh/4747-Bayard-St-15213/home/74664415,,,N,Y,40.4514631,-79.9462229
PAST SALE,June-27-2022,Condo/Co-op,146 N Bellefield Ave #501,Oakland,PA,15213,1332946,3,2.5,Oakland,3163,,1986,,421,1650,Sold,,,https://www.redfin.com/PA/Pittsburgh/146-N-Bellefield-Ave-15213/unit-501/home/73548858,West Penn MLS,1549064,N,Y,40.448027,-79.9517524
PAST SALE,,Single Family Residential,212 S Millvale Ave,Pittsburgh,PA,15224,715000,4,1.5,,2528,2875,1900,,283,,,,,https://www.redfin.com/PA/Pittsburgh/212-S-Millvale-Ave-15224/home/74658342,,,N,Y,40.464448,-79.945611
PAST SALE,June-27-2022,Multi-Family (2-4 Unit),4918 Liberty Ave,Bloomfield,PA,15224,447000,3,2.0,Bloomfield,,1999,1900,,,,Sold,,,https://www.redfin.com/PA/Pittsburgh/4918-Liberty-Ave-15224/home/175731461,West Penn MLS,1511774,N,Y,40.4594551,-79.9453815
PAST SALE,June-24-2022,Multi-Family (2-4 Unit),419 Taylor St,Bloomfield,PA,15224,365000,3,2.0,Bloomfield,,2739,1880,,,,Sold,,,https://www.redfin.com/PA/Pittsburgh/419-Taylor-St-15224/home/74563335,West Penn MLS,1555569,N,Y,40.4608542,-79.9520983
PAST SALE,,Townhouse,3614 Mintwood St,Pittsburgh,PA,15201,310000,3,1.0,,1608,1800,1890,,193,,,,,https://www.redfin.com/PA/Pittsburgh/3614-Mintwood-St-15201/home/73505628,,,N,Y,40.4632227,-79.963575
PAST SALE,June-23-2022,Single Family Residential,1121 Herron Ave,Polish Hill,PA,15219,156000,0,,Polish Hill,1404,1542,1985,,111,,Sold,,,https://www.redfin.com/PA/Pittsburgh/1121-Herron-Ave-15219/home/74563886,West Penn MLS,1543737,N,Y,40.4584146,-79.9644491
PAST SALE,June-23-2022,Single Family Residential,1717 Lowrie,Troy Hill,PA,15212,725000,4,2.0,Troy Hill,3660,,2010,,198,,Sold,,,https://www.redfin.com/PA/Pittsburgh/1717-Lowrie-St-15212/home/102820938,West Penn MLS,1531667,N,Y,40.4640842,-79.9820159
PAST SALE,June-22-2022,Single Family Residential,424 S Pacific Ave,Friendship Park,PA,15224,671000,5,4.5,Friendship Park,3021,5654,1917,,222,,Sold,,,https://www.redfin.com/PA/Pittsburgh/424-S-Pacific-Ave-15224/home/74661729,West Penn MLS,1552837,N,Y,40.4587363,-79.9411085
PAST SALE,June-21-2022,Condo/Co-op,5 Bayard Rd #912,Shadyside,PA,15213,270000,3,2.0,Shadyside,1511,,1969,,179,797,Sold,,,https://www.redfin.com/PA/Pittsburgh/5-Bayard-Rd-15213/unit-912/home/74665034,West Penn MLS,1542633,N,Y,40.4526045,-79.9428352
PAST SALE,June-21-2022,Single Family Residential,1815 Webster Ave,Hill District,PA,15219,270000,3,1.5,Hill District,1320,3863,2007,,205,,Sold,,,https://www.redfin.com/PA/Pittsburgh/1815-Webster-Ave-15219/home/74773625,West Penn MLS,1546260,N,Y,40.4447354,-79.9845678
PAST SALE,June-21-2022,Single Family Residential,4080 Howley St,Bloomfield,PA,15224,303000,3,2.0,Bloomfield,,2299,1900,,,,Sold,,,https://www.redfin.com/PA/Pittsburgh/4080-Howley-St-15224/home/74653280,West Penn MLS,1552595,N,Y,40.4640199,-79.9542219
PAST SALE,June-17-2022,Condo/Co-op,425 N Neville St #106,Oakland,PA,15213,287500,2,2.0,Oakland,1413,,1980,,203,536,Sold,,,https://www.redfin.com/PA/Pittsburgh/425-N-Neville-St-15213/unit-106/home/73579668,West Penn MLS,1556037,N,Y,40.4509669,-79.9484304
PAST SALE,June-17-2022,Condo/Co-op,420 S Aiken Ave Unit B1,Shadyside,PA,15232,193555,1,1.0,Shadyside,671,,1969,,288,305,Sold,,,https://www.redfin.com/PA/Pittsburgh/420-S-Aiken-Ave-15232/unit-B1/home/74661886,West Penn MLS,1553533,N,Y,40.4587683,-79.9385511
PAST SALE,June-17-2022,Condo/Co-op,4625 Fifth Ave #616,Oakland,PA,15213,102000,2,1.0,Oakland,,,1957,,,738,Sold,,,https://www.redfin.com/PA/Pittsburgh/4625-Fifth-Ave-15213/unit-616/home/147530720,West Penn MLS,1532077,N,Y,40.4473994,-79.9482013
PAST SALE,June-16-2022,Single Family Residential,4046 Cabinet St,Bloomfield,PA,15224,328050,3,1.5,Bloomfield,1304,18730,1900,,252,,Sold,,,https://www.redfin.com/PA/Pittsburgh/4046-Cabinet-St-15224/home/74653316,West Penn MLS,1553789,N,Y,40.4641535,-79.9555499
PAST SALE,June-15-2022,Condo/Co-op,540 N Neville St #604,Oakland,PA,15213,307000,2,2.5,Oakland,1730,,1973,,177,901,Sold,,,https://www.redfin.com/PA/Pittsburgh/540-N-Neville-St-15213/unit-604/home/74665183,West Penn MLS,1548853,N,Y,40.4490295,-79.9486984
PAST SALE,June-15-2022,Condo/Co-op,144 N Dithridge St #701,Oakland,PA,15213,157500,1,1.0,Oakland,1082,,1940,,146,630,Sold,,,https://www.redfin.com/PA/Pittsburgh/144-N-Dithridge-St-15213/unit-701/home/73524357,West Penn MLS,1554743,N,Y,40.4482339,-79.950786
PAST SALE,June-14-2022,Townhouse,4803 Ellsworth Ave,Shadyside,PA,15213,720000,3,4.0,Shadyside,2865,6067,1993,,251,,Sold,,,https://www.redfin.com/PA/Pittsburgh/4803-Ellsworth-Ave-15213/home/74665336,West Penn MLS,1547548,N,Y,40.4492986,-79.9466036
PAST SALE,June-14-2022,Condo/Co-op,144 N Dithridge #403,Oakland,PA,15213,169900,1,1.0,Oakland,1110,,1940,,153,647,Sold,,,https://www.redfin.com/PA/Pittsburgh/144-N-Dithridge-St-15213/unit-403/home/74567635,West Penn MLS,1554944,N,Y,40.4482339,-79.950786
PAST SALE,June-14-2022,Condo/Co-op,2545 Penn Ave #503,Downtown Pgh,PA,15222,640000,2,2.5,Downtown Pgh,1440,,2020,,444,467,Sold,,,https://www.redfin.com/PA/Pittsburgh/2545-Penn-Ave-15222/unit-503/home/144917971,West Penn MLS,1511337,N,Y,40.4548321,-79.9789136
PAST SALE,June-13-2022,Single Family Residential,3926 Mintwood St,Lawrenceville,PA,15224,425000,3,2.5,Lawrenceville,1440,2178,1900,,295,,Sold,,,https://www.redfin.com/PA/Pittsburgh/3926-Mintwood-St-15224/home/73529377,West Penn MLS,1547139,N,Y,40.464007,-79.958691
PAST SALE,June-10-2022,Single Family Residential,4726 Lorigan St,Bloomfield,PA,15224,70000,0,,Bloomfield,,2461,,,,,Sold,,,https://www.redfin.com/PA/Pittsburgh/4726-Lorigan-St-15224/home/147548768,West Penn MLS,1539590,N,Y,40.4584655,-79.9513749
PAST SALE,June-10-2022,Single Family Residential,802 Bryn Mawr Rd,Schenley Heights,PA,15219,174900,2,2.0,Schenley Heights,,2339,1900,,,,Sold,,,https://www.redfin.com/PA/Pittsburgh/802-Bryn-Mawr-Rd-15219/home/74567478,West Penn MLS,1539378,N,Y,40.4523371,-79.9601551
PAST SALE,June-10-2022,Single Family Residential,4625 Friendship Ave,Bloomfield,PA,15224,290000,1,1.5,Bloomfield,1280,1498,1900,,227,,Sold,,,https://www.redfin.com/PA/Pittsburgh/4625-Friendship-Ave-15224/home/73505663,West Penn MLS,1553762,N,Y,40.4641775,-79.9495688
PAST SALE,June-10-2022,Single Family Residential,206 Taylor St,Bloomfield,PA,15224,400000,4,3.0,Bloomfield,2148,1585,1910,,186,,Sold,,,https://www.redfin.com/PA/Pittsburgh/206-Taylor-St-15224/home/74653704,West Penn MLS,1543883,N,Y,40.4637188,-79.9501385
PAST SALE,June-10-2022,Condo/Co-op,2419 Smallman St #405,Downtown Pgh,PA,15222,649000,2,2.0,Downtown Pgh,1413,,2016,,459,340,Sold,,,https://www.redfin.com/PA/Pittsburgh/2419-Smallman-St-15222/unit-405/home/145085598,West Penn MLS,1547330,N,Y,40.454678,-79.9809151
PAST SALE,June-9-2022,Single Family Residential,2520 Hallett St,Hill District,PA,15219,70000,5,1.0,Hill District,,,1910,,,,Sold,,,https://www.redfin.com/PA/Pittsburgh/2520-Hallett-St-15219/home/74457130,West Penn MLS,1535475,N,Y,40.4472085,-79.9697971
PAST SALE,,Single Family Residential,2539 Webster Ave,Pittsburgh,PA,15219,48000,3,1.0,,960,5175,1950,,50,,,,,https://www.redfin.com/PA/Pittsburgh/2539-Webster-Ave-15219/home/73540296,,,N,Y,40.450372,-79.9712938
PAST SALE,,Single Family Residential,3024 Vancroft St,Pittsburgh,PA,15219,35000,3,1.0,,1138,2101,1920,,31,,,,,https://www.redfin.com/PA/Pittsburgh/3024-Vancroft-St-15219/home/74567146,,,N,Y,40.450312,-79.9641431
PAST SALE,,Condo/Co-op,425 N Neville St #103,Pittsburgh,PA,15213,223000,1,1.0,,986,,1980,,226,,,,,https://www.redfin.com/PA/Pittsburgh/425-N-Neville-St-15213/unit-103/home/74664473,,,N,Y,40.4509819,-79.9484432
PAST SALE,June-7-2022,Single Family Residential,3646 Mintwood St,Lawrenceville,PA,15201,510000,2,2.5,Lawrenceville,1560,1899,1890,,327,,Sold,,,https://www.redfin.com/PA/Pittsburgh/3646-Mintwood-St-15201/home/74652928,West Penn MLS,1552444,N,Y,40.4633508,-79.9624496
PAST SALE,June-7-2022,Condo/Co-op,5 Bayard Rd #600,Shadyside,PA,15213,225000,2,2.0,Shadyside,1270,,1969,,177,593,Sold,,,https://www.redfin.com/PA/Pittsburgh/5-Bayard-Rd-15213/unit-600/home/74665157,West Penn MLS,1540359,N,Y,40.4526045,-79.9428352
PAST SALE,June-6-2022,Multi-Family (2-4 Unit),3455 Ligonier St,Lawrenceville,PA,15201,451000,4,2.0,Lawrenceville,,2400,1900,,,,Sold,,,https://www.redfin.com/PA/Pittsburgh/3455-Ligonier-St-15201/home/74653031,West Penn MLS,1546585,N,Y,40.4632737,-79.9650609
PAST SALE,,Other,3550 Melwood Ave,Pittsburgh,PA,15213,32000,,,,,2425,,,,,,,,https://www.redfin.com/PA/Pittsburgh/3550-Melwood-Ave-15213/home/163680443,,,N,Y,40.4594896,-79.9593505
PAST SALE,June-6-2022,Condo/Co-op,4601 Fifth #128,Oakland,PA,15213,125000,2,2.0,Oakland,,,1958,,,919,Sold,,,https://www.redfin.com/PA/Pittsburgh/4601-Fifth-Ave-15213/unit-128/home/147515508,West Penn MLS,1540436,N,Y,40.447339,-79.948719
PAST SALE,June-6-2022,Multi-Family (2-4 Unit),403 S Atlantic Ave,Friendship Park,PA,15224,507000,6,3.0,Friendship Park,,5227,1898,,,,Sold,,,https://www.redfin.com/PA/Pittsburgh/403-S-Atlantic-Ave-15224/home/74661862,West Penn MLS,1546720,N,Y,40.4594229,-79.9390538
PAST SALE,June-6-2022,Townhouse,4700 Ellsworth Ave #14,Shadyside,PA,15213,700000,4,3.0,Shadyside,3000,,1988,,233,831,Sold,,,https://www.redfin.com/PA/Pittsburgh/4700-Ellsworth-Ave-15213/unit-14/home/73506315,West Penn MLS,1549201,N,Y,40.4481258,-79.9471966
PAST SALE,,Multi-Family (2-4 Unit),240 S Mathilda St,Pittsburgh,PA,15224,560000,5,3.0,,2592,2228,1910,,216,,,,,https://www.redfin.com/PA/Pittsburgh/240-S-Mathilda-St-15224/home/74658315,,,N,Y,40.463863,-79.9469405
PAST SALE,June-3-2022,Condo/Co-op,5 Bayard Rd #908,Shadyside,PA,15213,215000,1,1.0,Shadyside,892,,1969,,241,494,Sold,,,https://www.redfin.com/PA/Pittsburgh/5-Bayard-Rd-15213/unit-908/home/74665055,West Penn MLS,1549164,N,Y,40.4526045,-79.9428352
PAST SALE,June-3-2022,Single Family Residential,333 Cedarville St,Bloomfield,PA,15224,320000,3,3.0,Bloomfield,1728,1380,1925,,185,,Sold,,,https://www.redfin.com/PA/Pittsburgh/333-Cedarville-St-15224/home/74563479,West Penn MLS,1547921,N,Y,40.4606827,-79.9494678
PAST SALE,June-3-2022,Condo/Co-op,4601 Fifth Ave #328,Oakland,PA,15213,112500,2,2.0,Oakland,,,1958,,,937,Sold,,,https://www.redfin.com/PA/Pittsburgh/4601-Fifth-Ave-15213/unit-328/home/173124061,West Penn MLS,1537369,N,Y,40.447339,-79.948719
PAST SALE,June-2-2022,Single Family Residential,237 Pearl St,Bloomfield,PA,15224,310000,3,2.0,Bloomfield,,2069,1910,,,,Sold,,,https://www.redfin.com/PA/Pittsburgh/237-Pearl-St-15224/home/73506007,West Penn MLS,1546606,N,Y,40.4625427,-79.9493811
PAST SALE,,Townhouse,742 Clarissa St,Pittsburgh,PA,15219,111750,2,1.5,,1124,1349,1915,,99,,,,,https://www.redfin.com/PA/Pittsburgh/742-Clarissa-St-15219/home/74563938,,,N,Y,40.4531781,-79.9603075
PAST SALE,June-1-2022,Single Family Residential,3936 Clement Way,Lawrenceville,PA,15224,339000,3,2.0,Lawrenceville,1360,801,1910,,249,,Sold,,,https://www.redfin.com/PA/Pittsburgh/3936-Clement-Way-15224/home/73578563,West Penn MLS,1548955,N,Y,40.4631822,-79.9581556
PAST SALE,,Townhouse,3411 Butler St,Pittsburgh,PA,15201,707649,3,2.5,,2444,2400,2012,,290,,,,,https://www.redfin.com/PA/Pittsburgh/3411-Butler-St-15201/home/74651777,,,N,Y,40.4630827,-79.9671536
PAST SALE,May-31-2022,Single Family Residential,228 Edmond St,Bloomfield,PA,15224,320000,4,3.0,Bloomfield,2070,1624,1920,,155,,Sold,,,https://www.redfin.com/PA/Pittsburgh/228-Edmond-St-15224/home/74657873,West Penn MLS,1549700,N,Y,40.4644055,-79.9477066
PAST SALE,May-31-2022,Condo/Co-op,128 N Craig #605,Oakland,PA,15213,275000,2,2.0,Oakland,1336,,1957,,206,723,Sold,,,https://www.redfin.com/PA/Pittsburgh/128-N-Craig-St-15213/unit-605/home/74664808,West Penn MLS,1552634,N,Y,40.4480778,-79.9483198
PAST SALE,May-31-2022,Single Family Residential,5156 Cypress St,Bloomfield,PA,15224,420000,6,3.0,Bloomfield,3684,3750,1900,,114,,Sold,,,https://www.redfin.com/PA/Pittsburgh/5156-Cypress-St-15224/home/74662368,West Penn MLS,1545682,N,Y,40.4563533,-79.9431096
PAST SALE,May-27-2022,Condo/Co-op,5 Bayard Rd #101,Shadyside,PA,15213,147000,1,1.0,Shadyside,709,,1969,,207,366,Sold,,,https://www.redfin.com/PA/Pittsburgh/5-Bayard-Rd-15213/unit-101/home/74664745,West Penn MLS,1505993,N,Y,40.4526045,-79.9428352
PAST SALE,May-27-2022,Single Family Residential,232 S Millvale Ave,Bloomfield,PA,15224,669000,4,3.0,Bloomfield,2500,3049,1905,,268,,Sold,,,https://www.redfin.com/PA/Pittsburgh/232-S-Millvale-Ave-15224/home/74658333,West Penn MLS,1546800,N,Y,40.4637543,-79.9457047
PAST SALE,May-27-2022,Condo/Co-op,220 N Bellefield Ave #403,Oakland,PA,15213,675825,3,2.0,Oakland,2006,,1997,,337,1117,Sold,,,https://www.redfin.com/PA/Pittsburgh/220-N-Bellefield-Ave-15213/unit-403/home/74775542,West Penn MLS,1545643,N,Y,40.4490999,-79.9527577
PAST SALE,,Condo/Co-op,1528 Hatteras St,Pittsburgh,PA,15212,73000,4,1.5,,2463,,1910,,30,,,,,https://www.redfin.com/PA/Pittsburgh/1528-Hatteras-St-15212/home/74650901,,,N,Y,40.4627603,-79.9849998
PAST SALE,May-27-2022,Condo/Co-op,5 Bayard Rd #308,Shadyside,PA,15213,189900,1,1.0,Shadyside,892,,1969,,213,494,Sold,,,https://www.redfin.com/PA/Pittsburgh/5-Bayard-Rd-15213/unit-308/home/73530171,West Penn MLS,1546166,N,Y,40.4526045,-79.9428352
PAST SALE,May-27-2022,Single Family Residential,3951 Howley St,Lawrenceville,PA,15224,505000,3,2.5,Lawrenceville,2028,1123,1900,,249,,Sold,,,https://www.redfin.com/PA/Pittsburgh/3951-Howley-St-15224/home/74653357,West Penn MLS,1545443,N,Y,40.4636205,-79.9577622
PAST SALE,,Vacant Land,2535 Allequippa St,Pittsburgh,PA,15213,38000,,,,,2400,,,,,,,,https://www.redfin.com/PA/Pittsburgh/2535-Allequippa-St-15213/home/163853715,,,N,Y,40.4420707,-79.9671249
PAST SALE,May-27-2022,Condo/Co-op,4625 Fifth Ave #812,Oakland,PA,15213,157000,2,2.0,Oakland,1025,,1956,,153,801,Sold,,,https://www.redfin.com/PA/Pittsburgh/4625-Fifth-Ave-15213/unit-812/home/102220070,West Penn MLS,1537390,N,Y,40.4473994,-79.9482013
PAST SALE,May-26-2022,Single Family Residential,224 S Millvale Ave,Bloomfield,PA,15224,560000,4,2.0,Bloomfield,2596,3876,1900,,216,,Sold,,,https://www.redfin.com/PA/Pittsburgh/224-S-Millvale-Ave-15224/home/74658336,West Penn MLS,1545863,N,Y,40.4640313,-79.9456875
PAST SALE,May-25-2022,Condo/Co-op,166 N Dithridge St Unit 2B,Oakland,PA,15213,120487,0,1.0,Oakland,639,,1928,,189,432,Sold,,,https://www.redfin.com/PA/Pittsburgh/166-N-Dithridge-St-15213/unit-2B/home/74567706,West Penn MLS,1542862,N,Y,40.448595,-79.9513323
PAST SALE,May-25-2022,Condo/Co-op,128 N Craig #902,Oakland,PA,15213,234000,2,2.0,Oakland,1267,,1957,,185,732,Sold,,,https://www.redfin.com/PA/Pittsburgh/128-N-Craig-St-15213/unit-902/home/74664846,West Penn MLS,1539462,N,Y,40.4480778,-79.9483198
PAST SALE,May-24-2022,Multi-Family (5+ Unit),3201 Camp St,Schenley Heights,PA,15219,942500,20,10.0,Schenley Heights,,,1950,,,,Sold,,,https://www.redfin.com/PA/Pittsburgh/3201-Camp-St-15219/home/74567497,West Penn MLS,1540410,N,Y,40.4518001,-79.9591124
PAST SALE,May-24-2022,Single Family Residential,527 Landleiss Pl,Hill District,PA,15219,105000,3,1.0,Hill District,1356,1947,1928,,77,,Sold,,,https://www.redfin.com/PA/Pittsburgh/527-Landleiss-Pl-15219/home/74567488,West Penn MLS,1538212,N,Y,40.4496453,-79.9646792
PAST SALE,May-23-2022,Single Family Residential,3120 Brereton St,Polish Hill,PA,15219,70000,3,2.0,Polish Hill,1068,3001,1900,,66,,Sold,,,https://www.redfin.com/PA/Pittsburgh/3120-Brereton-St-15219/home/74561612,West Penn MLS,1545604,N,Y,40.456625,-79.9662536
PAST SALE,May-20-2022,Condo/Co-op,4625 Fifth Ave #402,Oakland,PA,15213,102000,2,2.0,Oakland,,,1956,,,749,Sold,,,https://www.redfin.com/PA/Pittsburgh/4625-Fifth-Ave-15213/unit-402/home/147531197,West Penn MLS,1538442,N,Y,40.4473994,-79.9482013
PAST SALE,,Condo/Co-op,144 N Dithridge St #102,Pittsburgh,PA,15213,149900,1,1.0,,1082,,1940,,139,,,,,https://www.redfin.com/PA/Pittsburgh/144-N-Dithridge-St-15213/unit-102/home/73500723,,,N,Y,40.4482339,-79.950786
PAST SALE,May-19-2022,Condo/Co-op,5023 Frew St Unit 4D,Squirrel Hill,PA,15213,400000,2,2.0,Squirrel Hill,1900,,1938,,211,2877,Sold,,,https://www.redfin.com/PA/Pittsburgh/5023-Frew-St-15213/unit-4D/home/102205470,West Penn MLS,1512084,N,Y,40.4406584,-79.9409255
PAST SALE,May-19-2022,Condo/Co-op,5 Bayard Rd #812,Shadyside,PA,15213,300000,3,2.0,Shadyside,1511,,1969,,199,1009,Sold,,,https://www.redfin.com/PA/Pittsburgh/5-Bayard-Rd-15213/unit-812/home/74665136,West Penn MLS,1543060,N,Y,40.4526167,-79.9428455
PAST SALE,May-18-2022,Condo/Co-op,307 S Dithridge #804,Oakland,PA,15213,305000,2,2.0,Oakland,1610,,1979,,189,981,Sold,,,https://www.redfin.com/PA/Pittsburgh/307-S-Dithridge-St-15213/unit-804/home/73501107,West Penn MLS,1546101,N,Y,40.4453513,-79.9499554
PAST SALE,May-18-2022,Condo/Co-op,622 Gross #304,Bloomfield,PA,15224,310000,1,1.5,Bloomfield,809,270,2018,,383,241,Sold,,,https://www.redfin.com/PA/Pittsburgh/622-Gross-St-15224/unit-304/home/160607854,West Penn MLS,1529835,N,Y,40.4581181,-79.9464196
PAST SALE,May-17-2022,Single Family Residential,4803 Cypress St,Bloomfield,PA,15224,335000,3,1.5,Bloomfield,1536,827,1900,,218,,Sold,,,https://www.redfin.com/PA/Pittsburgh/4803-Cypress-St-15224/home/74661702,West Penn MLS,1547197,N,Y,40.4591717,-79.9476119
PAST SALE,May-13-2022,Multi-Family (2-4 Unit),1539 Lowrie St,Troy Hill,PA,15212,52000,,,Troy Hill,,1398,1900,,,,Sold,,,https://www.redfin.com/PA/Pittsburgh/1539-Lowrie-St-15212/home/170391317,West Penn MLS,1513785,N,Y,40.4620543,-79.983804
PAST SALE,May-13-2022,Single Family Residential,2915 Bedford Ave,Hill District,PA,15219,91500,2,1.0,Hill District,1080,1511,1900,,85,,Sold,,,https://www.redfin.com/PA/Pittsburgh/2915-Bedford-Ave-15219/home/73524751,West Penn MLS,1546375,N,Y,40.453017,-79.9674606
PAST SALE,May-12-2022,Multi-Family (2-4 Unit),4315-4317 Dakota St,Schenley Heights,PA,15213,371371,6,2.0,Schenley Heights,,,1928,,,,Sold,,,https://www.redfin.com/PA/Pittsburgh/4315-Dakota-St-15213/home/74567355,West Penn MLS,1540555,N,Y,40.4522727,-79.9559265
PAST SALE,May-10-2022,Townhouse,82 Waterfront Dr,Washington's Landing,PA,15222,830000,3,3.0,Washington's Landing,2551,2299,1999,,325,585,Sold,,,https://www.redfin.com/PA/Pittsburgh/82-Waterfront-Dr-15222/home/74774309,West Penn MLS,1540907,N,Y,40.4610114,-79.9799777
PAST SALE,May-10-2022,Condo/Co-op,4625 Fifth Ave #810,Oakland,PA,15213,134500,2,1.0,Oakland,,,1956,,,683,Sold,,,https://www.redfin.com/PA/Pittsburgh/4625-Fifth-Ave-15213/unit-810/home/112901159,West Penn MLS,1545749,N,Y,40.4473994,-79.9482013
PAST SALE,May-10-2022,Condo/Co-op,166 N Dithridge St Unit 1L,Oakland,PA,15213,130000,1,1.0,Oakland,909,200,1928,,143,633,Sold,,,https://www.redfin.com/PA/Pittsburgh/166-N-Dithridge-St-15213/unit-1L/home/74567710,West Penn MLS,1538670,N,Y,40.4485929,-79.9513309
PAST SALE,May-9-2022,Condo/Co-op,4625 Fifth Ave #811,Oakland,PA,15232,99000,2,1.0,Oakland,865,,1957,,114,683,Sold,,,https://www.redfin.com/PA/Pittsburgh/4625-Fifth-Ave-15213/unit-811/home/147510847,West Penn MLS,1537241,N,Y,40.4473994,-79.9482013
PAST SALE,May-9-2022,Condo/Co-op,552 N Neville St #74,Oakland,PA,15213,275000,2,2.0,Oakland,,,1972,,,1122,Sold,,,https://www.redfin.com/PA/Pittsburgh/552-N-Neville-St-15213/unit-74/home/74665304,West Penn MLS,1546198,N,Y,40.448632,-79.9481535
PAST SALE,May-6-2022,Condo/Co-op,144 N Dithridge #308,Oakland,PA,15213,165001,1,1.0,Oakland,,,1940,,,695,Sold,,,https://www.redfin.com/PA/Pittsburgh/144-N-Dithridge-St-15213/unit-308/home/74567630,West Penn MLS,1546678,N,Y,40.4482339,-79.950786
PAST SALE,,Multi-Family (2-4 Unit),3604 Melwood Ave,Pittsburgh,PA,15213,240000,2,1.0,,1624,2900,1900,,148,,,,,https://www.redfin.com/PA/Pittsburgh/3604-Melwood-Ave-15213/home/74563753,,,N,Y,40.4595524,-79.9598776
PAST SALE,May-5-2022,Single Family Residential,604 Edmond St,Bloomfield,PA,15224,110000,0,,Bloomfield,,2439,,,,,Sold,,,https://www.redfin.com/PA/Pittsburgh/604-Edmond-St-15224/home/74661603,West Penn MLS,1498743,N,Y,40.45983,-79.94944
PAST SALE,May-2-2022,Condo/Co-op,540 N Neville St #707,Oakland,PA,15213,320000,2,2.0,Oakland,1624,,1973,,197,979,Sold,,,https://www.redfin.com/PA/Pittsburgh/540-N-Neville-St-15213/unit-707/home/74665179,West Penn MLS,1542403,N,Y,40.4490201,-79.9486927
PAST SALE,April-29-2022,Condo/Co-op,5 Bayard Rd #520,Shadyside,PA,15213,175000,1,1.0,Shadyside,709,,1969,,247,474,Sold,,,https://www.redfin.com/PA/Pittsburgh/5-Bayard-Rd-15213/unit-520/home/74665155,West Penn MLS,1539506,N,Y,40.4526045,-79.9428352
PAST SALE,April-29-2022,Condo/Co-op,5 Bayard Rd #617,Shadyside,PA,15213,196000,1,1.0,Shadyside,856,,1969,,229,652,Sold,,,https://www.redfin.com/PA/Pittsburgh/5-Bayard-Rd-15213/unit-617/home/74665169,West Penn MLS,1545986,N,Y,40.4526167,-79.9428455
PAST SALE,April-28-2022,Condo/Co-op,5 Bayard Rd #721,Shadyside,PA,15213,145000,1,1.0,Shadyside,,,1969,,,475,Sold,,,https://www.redfin.com/PA/Pittsburgh/5-Bayard-Rd-15213/unit-721/home/74665123,West Penn MLS,1516044,N,Y,40.4526045,-79.9428352
PAST SALE,April-28-2022,Single Family Residential,415 Orwell Way,Bloomfield,PA,15224,260000,3,1.0,Bloomfield,1517,1341,1890,,171,,Sold,,,https://www.redfin.com/PA/Pittsburgh/415-Orwell-Way-15224/home/73573989,West Penn MLS,1542028,N,Y,40.461303,-79.9527686
PAST SALE,,Single Family Residential,257 Oakland Ave,Pittsburgh,PA,15213,725000,3,,,3270,3750,1860,,222,,,,,https://www.redfin.com/PA/Pittsburgh/257-Oakland-Ave-15213/home/74571618,,,N,Y,40.4404266,-79.9552013
PAST SALE,April-28-2022,Townhouse,4098 Howley St,Bloomfield,PA,15224,300000,2,1.0,Bloomfield,912,1219,1900,,329,,Sold,,,https://www.redfin.com/PA/Pittsburgh/4098-Howley-St-15224/home/74653290,West Penn MLS,1542350,N,Y,40.464095,-79.9538078
PAST SALE,April-27-2022,Single Family Residential,2534 Allequippa St,Oakland,PA,15213,105000,3,2.0,Oakland,1246,3001,1930,,84,,Sold,,,https://www.redfin.com/PA/Pittsburgh/2534-Allequippa-St-15213/home/74465976,West Penn MLS,1521942,N,Y,40.4417615,-79.9668551
PAST SALE,,Condo/Co-op,215 25th St #5,Pittsburgh,PA,15222,2435121,3,2.0,,5425,,2016,,449,,,,,https://www.redfin.com/PA/Pittsburgh/215-25th-St-15222/unit-5/home/109110832,,,N,Y,40.4544588,-79.9802776
PAST SALE,April-27-2022,Single Family Residential,3499 Denny St,Lawrenceville,PA,15201,272500,2,1.0,Lawrenceville,,,1892,,,,Sold,,,https://www.redfin.com/PA/Pittsburgh/3499-Denny-St-15201/home/74653068,West Penn MLS,1535336,N,Y,40.463731,-79.963793
PAST SALE,April-27-2022,Condo/Co-op,220 N Dithridge St #807,Oakland,PA,15213,280000,2,2.0,Oakland,1413,178,1972,,198,632,Sold,,,https://www.redfin.com/PA/Pittsburgh/220-N-Dithridge-St-15213/unit-807/home/74567647,West Penn MLS,1524256,N,Y,40.4498524,-79.9517616
PAST SALE,,Single Family Residential,1031 Herron Ave,Pittsburgh,PA,15219,184500,3,1.5,,1734,1180,1885,,106,,,,,https://www.redfin.com/PA/Pittsburgh/1031-Herron-Ave-15219/home/73511574,,,N,Y,40.4576077,-79.9642305
PAST SALE,April-22-2022,Single Family Residential,250 Edmond St,Bloomfield,PA,15224,330000,3,1.5,Bloomfield,1376,1820,1900,,240,,Sold,,,https://www.redfin.com/PA/Pittsburgh/250-Edmond-St-15224/home/74657878,West Penn MLS,1539589,N,Y,40.4638198,-79.947884
PAST SALE,April-22-2022,Condo/Co-op,5 Bayard Rd #707,Shadyside,PA,15213,196000,1,1.0,Shadyside,856,,1969,,229,,Sold,,,https://www.redfin.com/PA/Pittsburgh/5-Bayard-Rd-15213/unit-707/home/74665159,West Penn MLS,1545536,N,Y,40.4526167,-79.9428455
PAST SALE,April-22-2022,Condo/Co-op,4601 Fifth Ave #529,Oakland,PA,15213,100000,2,2.0,Oakland,,,1958,,,958,Sold,,,https://www.redfin.com/PA/Pittsburgh/4601-Fifth-Ave-15213/unit-529/home/102204743,West Penn MLS,1537934,N,Y,40.447339,-79.948719
PAST SALE,April-20-2022,Condo/Co-op,2419 Smallman St #203,Downtown Pgh,PA,15222,405000,1,1.0,Downtown Pgh,1008,,2016,,402,285,Sold,,,https://www.redfin.com/PA/Pittsburgh/2419-Smallman-St-15222/unit-203/home/75128235,West Penn MLS,1510408,N,Y,40.454678,-79.9809151
PAST SALE,April-20-2022,Multi-Family (2-4 Unit),230 Morewood Ave,Bloomfield,PA,15213,260000,4,2.0,Bloomfield,,3005,1920,,,,Sold,,,https://www.redfin.com/PA/Pittsburgh/230-Morewood-Ave-15213/home/74662341,West Penn MLS,1545815,N,Y,40.4553325,-79.9458732
PAST SALE,April-20-2022,Condo/Co-op,5 Bayard #518,Shadyside,PA,15213,247750,2,2.0,Shadyside,,,1969,,,588,Sold,,,https://www.redfin.com/PA/Pittsburgh/5-Bayard-Rd-15213/unit-518/home/74665118,West Penn MLS,1541006,N,Y,40.4526045,-79.9428352
PAST SALE,April-20-2022,Condo/Co-op,146 N Bellefield Ave #601,Oakland,PA,15213,570000,2,2.0,Oakland,1800,217,1986,,317,932,Sold,,,https://www.redfin.com/PA/Pittsburgh/146-N-Bellefield-Ave-15213/unit-601/home/74567851,West Penn MLS,1532928,N,Y,40.448027,-79.9517524
PAST SALE,April-19-2022,Townhouse,307 38th St,Lawrenceville,PA,15201,635000,4,3.5,Lawrenceville,2342,1398,2018,,271,,Sold,,,https://www.redfin.com/PA/Pittsburgh/307-38th-St-15201/home/146179456,West Penn MLS,1542266,N,Y,40.4640672,-79.9611822
PAST SALE,,Condo/Co-op,504 N Neville St #1,Pittsburgh,PA,15213,325000,3,1.5,,2089,,1910,,156,,,,,https://www.redfin.com/PA/Pittsburgh/504-N-Neville-St-15213/unit-1/home/74665219,,,N,Y,40.4501381,-79.9490856
PAST SALE,,Single Family Residential,224 Robinson St,Pittsburgh,PA,15213,150000,3,1.0,,1566,1680,1902,,96,,,,,https://www.redfin.com/PA/Pittsburgh/224-Robinson-St-15213/home/74571498,,,N,Y,40.4412462,-79.9654542
PAST SALE,April-15-2022,Single Family Residential,248 S Mathilda St,Friendship Park,PA,15224,613000,3,2.5,Friendship Park,,,1910,,,,Sold,,,https://www.redfin.com/PA/Pittsburgh/248-S-Mathilda-St-15224/home/74658344,West Penn MLS,1536416,N,Y,40.4636499,-79.9469551
PAST SALE,April-15-2022,Single Family Residential,3935 Liberty Ave,Lawrenceville,PA,15224,649000,3,2.5,Lawrenceville,,,1900,,,,Sold,,,https://www.redfin.com/PA/Pittsburgh/3935-Liberty-Ave-15224/home/73578559,West Penn MLS,1520790,N,Y,40.4628563,-79.9581446
PAST SALE,April-15-2022,Condo/Co-op,504 N Neville St #10,Shadyside,PA,15213,325000,2,2.0,Shadyside,2089,8712,1910,,156,750,Sold,,,https://www.redfin.com/PA/Pittsburgh/504-N-Neville-St-15213/unit-10/home/74665218,West Penn MLS,1541564,N,Y,40.4501381,-79.9490856
PAST SALE,April-14-2022,Condo/Co-op,144 N Dithridge St #804,Oakland,PA,15213,130000,1,1.0,Oakland,1110,,1940,,117,,Sold,,,https://www.redfin.com/PA/Pittsburgh/144-N-Dithridge-St-15213/unit-804/home/73574046,West Penn MLS,1541539,N,Y,40.4482339,-79.950786
PAST SALE,April-13-2022,Condo/Co-op,4601 Fifth Ave #725,Oakland,PA,15213,140000,2,1.0,Oakland,,,1958,,,827,Sold,,,https://www.redfin.com/PA/Pittsburgh/4601-Fifth-Ave-15213/unit-725/home/102226836,West Penn MLS,1537928,N,Y,40.447339,-79.948719
PAST SALE,April-13-2022,Single Family Residential,1031 Herron Ave,Polish Hill,PA,15219,184500,3,1.0,Polish Hill,1734,,1885,,106,,Sold,,,https://www.redfin.com/PA/Pittsburgh/1031-Herron-Ave-15219/home/74563866,West Penn MLS,1500399,N,Y,40.4576077,-79.9642305
PAST SALE,April-12-2022,Condo/Co-op,144 N Dithridge St #814,Oakland,PA,15213,234000,2,2.0,Oakland,1456,,1940,,161,849,Sold,,,https://www.redfin.com/PA/Pittsburgh/144-N-Dithridge-St-15213/unit-814/home/74567594,West Penn MLS,1541540,N,Y,40.4482339,-79.950786
PAST SALE,April-12-2022,Single Family Residential,751 Cherokee St,Schenley Heights,PA,15219,75000,5,3.0,Schenley Heights,1692,2400,1935,,44,,Sold,,,https://www.redfin.com/PA/Pittsburgh/751-Cherokee-St-15219/home/74567270,West Penn MLS,1541847,N,Y,40.4518617,-79.9614384
PAST SALE,,Townhouse,224 Pearl St,Pittsburgh,PA,15224,345000,2,2.0,,1374,2557,1900,,251,,,,,https://www.redfin.com/PA/Pittsburgh/224-Pearl-St-15224/home/73553727,,,N,Y,40.4629017,-79.949545
PAST SALE,April-8-2022,Multi-Family (2-4 Unit),3034 Brereton St,Polish Hill,PA,15219,280000,2,2.0,Polish Hill,,3001,1902,,,,Sold,,,https://www.redfin.com/PA/Pittsburgh/3034-Brereton-St-15219/home/74561617,West Penn MLS,1537623,N,Y,40.4564561,-79.9686942
PAST SALE,April-8-2022,Single Family Residential,229 Chesterfield Rd,Oakland,PA,15213,255000,3,1.5,Oakland,1120,975,1900,,228,,Sold,,,https://www.redfin.com/PA/Pittsburgh/229-Chesterfield-Rd-15213/home/74571158,West Penn MLS,1541260,N,Y,40.4405513,-79.9634767
PAST SALE,,Single Family Residential,502 Melwood Ave,Pittsburgh,PA,15213,283000,2,1.0,,1054,1927,1900,,269,,,,,https://www.redfin.com/PA/Pittsburgh/502-Melwood-Ave-15213/home/74564131,,,N,Y,40.4565327,-79.9536698
PAST SALE,,Single Family Residential,1008 Devonshire Rd,Pittsburgh,PA,15213,980000,3,3.0,,2127,7020,1960,,461,,,,,https://www.redfin.com/PA/Pittsburgh/1008-Devonshire-Rd-15213/home/73579915,,,N,Y,40.4469382,-79.9440373
PAST SALE,April-6-2022,Single Family Residential,3511 Melwood Ave,Polish Hill,PA,15213,283000,3,2.0,Polish Hill,,,1900,,,,Sold,,,https://www.redfin.com/PA/Pittsburgh/3511-Melwood-Ave-15213/home/74563735,West Penn MLS,1528683,N,Y,40.4594039,-79.9610074
PAST SALE,April-5-2022,Condo/Co-op,5100 5th Ave #308,Shadyside,PA,15232,275000,1,2.0,Shadyside,1586,,1960,,173,1006,Sold,,,https://www.redfin.com/PA/Pittsburgh/5100-5th-Ave-15232/unit-308/home/74665884,West Penn MLS,1540797,N,Y,40.4474226,-79.9389966
PAST SALE,April-4-2022,Condo/Co-op,425 N Neville St #104,Oakland,PA,15213,277000,2,2.0,Oakland,1413,,1980,,196,536,Sold,,,https://www.redfin.com/PA/Pittsburgh/425-N-Neville-St-15213/unit-104/home/74664475,West Penn MLS,1538389,N,Y,40.4509819,-79.9484432
PAST SALE,April-4-2022,Single Family Residential,3104 Lyon St,Schenley Heights,PA,15219,41050,3,2.0,Schenley Heights,,,1930,,,,Sold,,,https://www.redfin.com/PA/Pittsburgh/3104-Lyon-St-15219/home/74567284,West Penn MLS,1533583,N,Y,40.4516538,-79.9605931
PAST SALE,April-1-2022,Single Family Residential,222 Parkman Ave,Schenley Farms,PA,15213,660000,4,3.5,Schenley Farms,2369,6150,1927,,279,,Sold,,,https://www.redfin.com/PA/Pittsburgh/222-Parkman-Ave-15213/home/74567895,West Penn MLS,1540671,N,Y,40.4464078,-79.9568881
PAST SALE,,Condo/Co-op,128 N Craig St #404,Pittsburgh,PA,15213,228500,3,2.0,,1680,,1957,,136,,,,,https://www.redfin.com/PA/Pittsburgh/128-N-Craig-St-15213/unit-404/home/74664785,,,N,Y,40.4480778,-79.9483198
PAST SALE,March-31-2022,Condo/Co-op,5 Bayard #717,Shadyside,PA,15213,186000,1,1.0,Shadyside,856,,1969,,217,474,Sold,,,https://www.redfin.com/PA/Pittsburgh/5-Bayard-Rd-15213/unit-717/home/73579996,West Penn MLS,1541072,N,Y,40.4526167,-79.9428455
PAST SALE,March-31-2022,Condo/Co-op,144 N Dithridge St #515,Oakland,PA,15213,228600,2,2.0,Oakland,1753,,1940,,130,1022,Sold,,,https://www.redfin.com/PA/Pittsburgh/144-N-Dithridge-St-15213/unit-515/home/74567591,West Penn MLS,1501218,N,Y,40.4482339,-79.950786
PAST SALE,March-31-2022,Multi-Family (2-4 Unit),3704-06 Melwood Ave,Polish Hill,PA,15213,321000,5,2.5,Polish Hill,,4173,1900,,,,Sold,,,https://www.redfin.com/PA/Pittsburgh/3704-Melwood-Ave-15213/home/163821869,West Penn MLS,1531877,N,Y,40.4597609,-79.9586003
PAST SALE,,Condo/Co-op,825 Morewood Ave #43,Pittsburgh,PA,15213,310000,2,1.5,,1176,,1960,,264,,,,,https://www.redfin.com/PA/Pittsburgh/825-Morewood-Ave-15213/unit-43/home/74665542,,,N,Y,40.4477993,-79.9422526
PAST SALE,March-29-2022,Single Family Residential,3341 Mcneil Pl,Hill District,PA,15219,179000,3,2.0,Hill District,,,1955,,,,Sold,,,https://www.redfin.com/PA/Pittsburgh/3341-McNeil-Pl-15219/home/74564088,West Penn MLS,1527548,N,Y,40.4542483,-79.9644921
PAST SALE,,Single Family Residential,4631 Winthrop St,Pittsburgh,PA,15213,190000,3,1.0,,1632,2000,1910,,116,,,,,https://www.redfin.com/PA/Pittsburgh/4631-Winthrop-St-15213/home/74665972,,,N,Y,40.4460356,-79.9475671
PAST SALE,March-29-2022,Condo/Co-op,825 Morewood Ave Unit G4,Shadyside,PA,15213,280000,2,1.5,Shadyside,1176,500,1960,,238,750,Sold,,,https://www.redfin.com/PA/Pittsburgh/825-Morewood-Ave-15213/unit-G4/home/73579577,West Penn MLS,1524635,N,Y,40.4478094,-79.9422552
PAST SALE,,Townhouse,3906 Howley St,Pittsburgh,PA,15224,300000,3,1.0,,1512,2000,1900,,198,,,,,https://www.redfin.com/PA/Pittsburgh/3906-Howley-St-15224/home/74653114,,,N,Y,40.4632492,-79.9592226
PAST SALE,March-28-2022,Condo/Co-op,4625 Fifth Ave #605,Oakland,PA,15213,160000,3,2.0,Oakland,1500,,1956,,107,900,Sold,,,https://www.redfin.com/PA/Pittsburgh/4625-Fifth-Ave-15213/unit-605/home/147514845,West Penn MLS,1535474,N,Y,40.4473994,-79.9482013
PAST SALE,March-28-2022,Condo/Co-op,4601 Fifth Ave #620,Oakland,PA,15213,160000,3,2.0,Oakland,,,1958,,,1093,Sold,,,https://www.redfin.com/PA/Pittsburgh/4601-Fifth-Ave-15213/unit-620/home/175215114,West Penn MLS,1537396,N,Y,40.447339,-79.948719
PAST SALE,March-25-2022,Multi-Family (5+ Unit),3505-07 Butler St,Lawrenceville,PA,15201,1510000,3,3.0,Lawrenceville,,1999,1950,,,,Sold,,,https://www.redfin.com/PA/Pittsburgh/3505-Butler-St-15201/home/177508667,West Penn MLS,1532714,N,Y,40.4642272,-79.9664046
PAST SALE,March-25-2022,Condo/Co-op,128 N Craig #404,Oakland,PA,15232,228500,3,2.0,Oakland,1680,,1964,,136,915,Sold,,,https://www.redfin.com/PA/Oakland/128-N-Craig-15232/unit-404/home/177614342,West Penn MLS,1533267,N,Y,40.4543936,-79.9394943
PAST SALE,March-25-2022,Single Family Residential,3916 Woolslayer Way,Lawrenceville,PA,15224,195000,2,1.0,Lawrenceville,1500,1219,1890,,130,,Sold,,,https://www.redfin.com/PA/Pittsburgh/3916-Woolslayer-Way-15224/home/74653388,West Penn MLS,1512555,N,Y,40.4644124,-79.9591608
